{
"type": "FeatureCollection",
"crs": { "type": "name", "properties": { "name": "urn:ogc:def:crs:OGC:1.3:CRS84" } },
"features": [
{ "type": "Feature", "properties": { "id_municipio": 3500105, "nome_municipio": "Adamantina" }, "geometry": { "type": "Point", "coordinates": [ -51.03454683836739, -21.582377901499996 ] } },
{ "type": "Feature", "properties": { "id_municipio": 3500204, "nome_municipio": "Adolfo" }, "geometry": { "type": "Point", "coordinates": [ -49.641569553606303, -21.28051791850001 ] } },
{ "type": "Feature", "properties": { "id_municipio": 3500303, "nome_municipio": "Aguaí" }, "geometry": { "type": "Point", "coordinates": [ -47.052632762943901, -22.057431114500019 ] } },
{ "type": "Feature", "properties": { "id_municipio": 3500402, "nome_municipio": "Águas da Prata" }, "geometry": { "type": "Point", "coordinates": [ -46.700561782342092, -21.917951249 ] } },
{ "type": "Feature", "properties": { "id_municipio": 3500501, "nome_municipio": "Águas de Lindóia" }, "geometry": { "type": "Point", "coordinates": [ -46.609396524556587, -22.475780606500024 ] } },
{ "type": "Feature", "properties": { "id_municipio": 3500550, "nome_municipio": "Águas de Santa Bárbara" }, "geometry": { "type": "Point", "coordinates": [ -49.287367637358635, -22.878144297 ] } },
{ "type": "Feature", "properties": { "id_municipio": 3500600, "nome_municipio": "Águas de São Pedro" }, "geometry": { "type": "Point", "coordinates": [ -47.876663595265427, -22.599233439500011 ] } },
{ "type": "Feature", "properties": { "id_municipio": 3500709, "nome_municipio": "Agudos" }, "geometry": { "type": "Point", "coordinates": [ -49.086652018222665, -22.560855564500002 ] } },
{ "type": "Feature", "properties": { "id_municipio": 3500758, "nome_municipio": "Alambari" }, "geometry": { "type": "Point", "coordinates": [ -47.870100321231547, -23.5503778 ] } },
{ "type": "Feature", "properties": { "id_municipio": 3500808, "nome_municipio": "Alfredo Marcondes" }, "geometry": { "type": "Point", "coordinates": [ -51.388820498583129, -21.937317079499991 ] } },
{ "type": "Feature", "properties": { "id_municipio": 3500907, "nome_municipio": "Altair" }, "geometry": { "type": "Point", "coordinates": [ -49.102694878878694, -20.53245157500001 ] } },
{ "type": "Feature", "properties": { "id_municipio": 3501004, "nome_municipio": "Altinópolis" }, "geometry": { "type": "Point", "coordinates": [ -47.369897503373281, -21.011273871000014 ] } },
{ "type": "Feature", "properties": { "id_municipio": 3501103, "nome_municipio": "Alto Alegre" }, "geometry": { "type": "Point", "coordinates": [ -50.195590059378219, -21.61462003150001 ] } },
{ "type": "Feature", "properties": { "id_municipio": 3501152, "nome_municipio": "Alumínio" }, "geometry": { "type": "Point", "coordinates": [ -47.270475999462747, -23.533427600499977 ] } },
{ "type": "Feature", "properties": { "id_municipio": 3501202, "nome_municipio": "Álvares Florence" }, "geometry": { "type": "Point", "coordinates": [ -49.933719492539097, -20.294173382999986 ] } },
{ "type": "Feature", "properties": { "id_municipio": 3501301, "nome_municipio": "Álvares Machado" }, "geometry": { "type": "Point", "coordinates": [ -51.523003904939003, -22.118814775499999 ] } },
{ "type": "Feature", "properties": { "id_municipio": 3501400, "nome_municipio": "Álvaro de Carvalho" }, "geometry": { "type": "Point", "coordinates": [ -49.740508428708331, -22.082996282500005 ] } },
{ "type": "Feature", "properties": { "id_municipio": 3501509, "nome_municipio": "Alvinlândia" }, "geometry": { "type": "Point", "coordinates": [ -49.758851052270586, -22.450953541499985 ] } },
{ "type": "Feature", "properties": { "id_municipio": 3501608, "nome_municipio": "Americana" }, "geometry": { "type": "Point", "coordinates": [ -47.278029151755021, -22.723520825500003 ] } },
{ "type": "Feature", "properties": { "id_municipio": 3501707, "nome_municipio": "Américo Brasiliense" }, "geometry": { "type": "Point", "coordinates": [ -48.038058592827383, -21.723855345 ] } },
{ "type": "Feature", "properties": { "id_municipio": 3501806, "nome_municipio": "Américo de Campos" }, "geometry": { "type": "Point", "coordinates": [ -49.774991232767128, -20.289622363 ] } },
{ "type": "Feature", "properties": { "id_municipio": 3501905, "nome_municipio": "Amparo" }, "geometry": { "type": "Point", "coordinates": [ -46.799099057146137, -22.696710739499991 ] } },
{ "type": "Feature", "properties": { "id_municipio": 3502002, "nome_municipio": "Analândia" }, "geometry": { "type": "Point", "coordinates": [ -47.677637893943, -22.126754425 ] } },
{ "type": "Feature", "properties": { "id_municipio": 3502101, "nome_municipio": "Andradina" }, "geometry": { "type": "Point", "coordinates": [ -51.367414903448342, -20.865664794 ] } },
{ "type": "Feature", "properties": { "id_municipio": 3502200, "nome_municipio": "Angatuba" }, "geometry": { "type": "Point", "coordinates": [ -48.45849421256618, -23.448769917499988 ] } },
{ "type": "Feature", "properties": { "id_municipio": 3502309, "nome_municipio": "Anhembi" }, "geometry": { "type": "Point", "coordinates": [ -48.146598578513164, -22.795909991499997 ] } },
{ "type": "Feature", "properties": { "id_municipio": 3502408, "nome_municipio": "Anhumas" }, "geometry": { "type": "Point", "coordinates": [ -51.420811319395114, -22.356476365 ] } },
{ "type": "Feature", "properties": { "id_municipio": 3502507, "nome_municipio": "Aparecida" }, "geometry": { "type": "Point", "coordinates": [ -45.239564598851786, -22.908374789999982 ] } },
{ "type": "Feature", "properties": { "id_municipio": 3502606, "nome_municipio": "Aparecida d`Oeste" }, "geometry": { "type": "Point", "coordinates": [ -50.919926357552924, -20.478239559499997 ] } },
{ "type": "Feature", "properties": { "id_municipio": 3502705, "nome_municipio": "Apiaí" }, "geometry": { "type": "Point", "coordinates": [ -48.763712594825066, -24.414867307 ] } },
{ "type": "Feature", "properties": { "id_municipio": 3502754, "nome_municipio": "Araçariguama" }, "geometry": { "type": "Point", "coordinates": [ -47.084403181788822, -23.433479943 ] } },
{ "type": "Feature", "properties": { "id_municipio": 3502804, "nome_municipio": "Araçatuba" }, "geometry": { "type": "Point", "coordinates": [ -50.485507392760994, -21.142726755500007 ] } },
{ "type": "Feature", "properties": { "id_municipio": 3502903, "nome_municipio": "Araçoiaba da Serra" }, "geometry": { "type": "Point", "coordinates": [ -47.649394881001228, -23.542654805000012 ] } },
{ "type": "Feature", "properties": { "id_municipio": 3503000, "nome_municipio": "Aramina" }, "geometry": { "type": "Point", "coordinates": [ -47.824777493858619, -20.156260693500002 ] } },
{ "type": "Feature", "properties": { "id_municipio": 3503109, "nome_municipio": "Arandu" }, "geometry": { "type": "Point", "coordinates": [ -49.06371534323123, -23.175192722499986 ] } },
{ "type": "Feature", "properties": { "id_municipio": 3503158, "nome_municipio": "Arapeí" }, "geometry": { "type": "Point", "coordinates": [ -44.427333270381013, -22.672378345999988 ] } },
{ "type": "Feature", "properties": { "id_municipio": 3503208, "nome_municipio": "Araraquara" }, "geometry": { "type": "Point", "coordinates": [ -48.239306976224775, -21.755491109499985 ] } },
{ "type": "Feature", "properties": { "id_municipio": 3503307, "nome_municipio": "Araras" }, "geometry": { "type": "Point", "coordinates": [ -47.337490184744794, -22.335018600500007 ] } },
{ "type": "Feature", "properties": { "id_municipio": 3503356, "nome_municipio": "Arco-Íris" }, "geometry": { "type": "Point", "coordinates": [ -50.427779262244748, -21.768375599 ] } },
{ "type": "Feature", "properties": { "id_municipio": 3503406, "nome_municipio": "Arealva" }, "geometry": { "type": "Point", "coordinates": [ -48.988650892743728, -22.075930511 ] } },
{ "type": "Feature", "properties": { "id_municipio": 3503505, "nome_municipio": "Areias" }, "geometry": { "type": "Point", "coordinates": [ -44.725256153932619, -22.677519297 ] } },
{ "type": "Feature", "properties": { "id_municipio": 3503604, "nome_municipio": "Areiópolis" }, "geometry": { "type": "Point", "coordinates": [ -48.648371576491058, -22.615398891500007 ] } },
{ "type": "Feature", "properties": { "id_municipio": 3503703, "nome_municipio": "Ariranha" }, "geometry": { "type": "Point", "coordinates": [ -48.790739308677928, -21.177143137499996 ] } },
{ "type": "Feature", "properties": { "id_municipio": 3503802, "nome_municipio": "Artur Nogueira" }, "geometry": { "type": "Point", "coordinates": [ -47.129871230239473, -22.555604225999986 ] } },
{ "type": "Feature", "properties": { "id_municipio": 3503901, "nome_municipio": "Arujá" }, "geometry": { "type": "Point", "coordinates": [ -46.32730843181465, -23.379398097500001 ] } },
{ "type": "Feature", "properties": { "id_municipio": 3503950, "nome_municipio": "Aspásia" }, "geometry": { "type": "Point", "coordinates": [ -50.72286361936618, -20.183395768 ] } },
{ "type": "Feature", "properties": { "id_municipio": 3504008, "nome_municipio": "Assis" }, "geometry": { "type": "Point", "coordinates": [ -50.400023735755326, -22.577718823 ] } },
{ "type": "Feature", "properties": { "id_municipio": 3504107, "nome_municipio": "Atibaia" }, "geometry": { "type": "Point", "coordinates": [ -46.585999926498772, -23.129395895999977 ] } },
{ "type": "Feature", "properties": { "id_municipio": 3504206, "nome_municipio": "Auriflama" }, "geometry": { "type": "Point", "coordinates": [ -50.56203615538405, -20.639704231999985 ] } },
{ "type": "Feature", "properties": { "id_municipio": 3504305, "nome_municipio": "Avaí" }, "geometry": { "type": "Point", "coordinates": [ -49.321776277343112, -22.194009481500018 ] } },
{ "type": "Feature", "properties": { "id_municipio": 3504404, "nome_municipio": "Avanhandava" }, "geometry": { "type": "Point", "coordinates": [ -49.936055195329637, -21.467477804999987 ] } },
{ "type": "Feature", "properties": { "id_municipio": 3504503, "nome_municipio": "Avaré" }, "geometry": { "type": "Point", "coordinates": [ -48.92568719037623, -23.064403901 ] } },
{ "type": "Feature", "properties": { "id_municipio": 3504602, "nome_municipio": "Bady Bassitt" }, "geometry": { "type": "Point", "coordinates": [ -49.426095380886665, -20.931961829500011 ] } },
{ "type": "Feature", "properties": { "id_municipio": 3504701, "nome_municipio": "Balbinos" }, "geometry": { "type": "Point", "coordinates": [ -49.334859310236723, -21.896229474500018 ] } },
{ "type": "Feature", "properties": { "id_municipio": 3504800, "nome_municipio": "Bálsamo" }, "geometry": { "type": "Point", "coordinates": [ -49.544625216060844, -20.703658122500002 ] } },
{ "type": "Feature", "properties": { "id_municipio": 3504909, "nome_municipio": "Bananal" }, "geometry": { "type": "Point", "coordinates": [ -44.341216565163926, -22.737391390999989 ] } },
{ "type": "Feature", "properties": { "id_municipio": 3505005, "nome_municipio": "Barão de Antonina" }, "geometry": { "type": "Point", "coordinates": [ -49.573792989173327, -23.568785742499983 ] } },
{ "type": "Feature", "properties": { "id_municipio": 3505104, "nome_municipio": "Barbosa" }, "geometry": { "type": "Point", "coordinates": [ -49.921492209819633, -21.290218401499999 ] } },
{ "type": "Feature", "properties": { "id_municipio": 3505203, "nome_municipio": "Bariri" }, "geometry": { "type": "Point", "coordinates": [ -48.733777650665694, -22.059619798 ] } },
{ "type": "Feature", "properties": { "id_municipio": 3505302, "nome_municipio": "Barra Bonita" }, "geometry": { "type": "Point", "coordinates": [ -48.557300839091504, -22.479105459499976 ] } },
{ "type": "Feature", "properties": { "id_municipio": 3505351, "nome_municipio": "Barra do Chapéu" }, "geometry": { "type": "Point", "coordinates": [ -49.082922096821648, -24.441783451 ] } },
{ "type": "Feature", "properties": { "id_municipio": 3505401, "nome_municipio": "Barra do Turvo" }, "geometry": { "type": "Point", "coordinates": [ -48.430158763112132, -24.875851572000016 ] } },
{ "type": "Feature", "properties": { "id_municipio": 3505500, "nome_municipio": "Barretos" }, "geometry": { "type": "Point", "coordinates": [ -48.639983077506237, -20.517865417499991 ] } },
{ "type": "Feature", "properties": { "id_municipio": 3505609, "nome_municipio": "Barrinha" }, "geometry": { "type": "Point", "coordinates": [ -48.103334699403568, -21.232669492000014 ] } },
{ "type": "Feature", "properties": { "id_municipio": 3505708, "nome_municipio": "Barueri" }, "geometry": { "type": "Point", "coordinates": [ -46.894632360589128, -23.511695937499979 ] } },
{ "type": "Feature", "properties": { "id_municipio": 3505807, "nome_municipio": "Bastos" }, "geometry": { "type": "Point", "coordinates": [ -50.741113262616125, -21.945977775999978 ] } },
{ "type": "Feature", "properties": { "id_municipio": 3505906, "nome_municipio": "Batatais" }, "geometry": { "type": "Point", "coordinates": [ -47.59343572847834, -20.86515200300002 ] } },
{ "type": "Feature", "properties": { "id_municipio": 3506003, "nome_municipio": "Bauru" }, "geometry": { "type": "Point", "coordinates": [ -49.154915004220321, -22.238743056 ] } },
{ "type": "Feature", "properties": { "id_municipio": 3506102, "nome_municipio": "Bebedouro" }, "geometry": { "type": "Point", "coordinates": [ -48.489487825628771, -20.938537132 ] } },
{ "type": "Feature", "properties": { "id_municipio": 3506201, "nome_municipio": "Bento de Abreu" }, "geometry": { "type": "Point", "coordinates": [ -50.834952093090067, -21.315068136 ] } },
{ "type": "Feature", "properties": { "id_municipio": 3506300, "nome_municipio": "Bernardino de Campos" }, "geometry": { "type": "Point", "coordinates": [ -49.492987102724612, -23.024864778 ] } },
{ "type": "Feature", "properties": { "id_municipio": 3506359, "nome_municipio": "Bertioga" }, "geometry": { "type": "Point", "coordinates": [ -46.061368293006268, -23.766211262500008 ] } },
{ "type": "Feature", "properties": { "id_municipio": 3506409, "nome_municipio": "Bilac" }, "geometry": { "type": "Point", "coordinates": [ -50.476449292492362, -21.415241703500016 ] } },
{ "type": "Feature", "properties": { "id_municipio": 3506508, "nome_municipio": "Birigui" }, "geometry": { "type": "Point", "coordinates": [ -50.349905838153333, -21.263767203500009 ] } },
{ "type": "Feature", "properties": { "id_municipio": 3506607, "nome_municipio": "Biritiba-Mirim" }, "geometry": { "type": "Point", "coordinates": [ -46.019232834784063, -23.62164885750002 ] } },
{ "type": "Feature", "properties": { "id_municipio": 3506706, "nome_municipio": "Boa Esperança do Sul" }, "geometry": { "type": "Point", "coordinates": [ -48.476445641746253, -21.948724613 ] } },
{ "type": "Feature", "properties": { "id_municipio": 3506805, "nome_municipio": "Bocaina" }, "geometry": { "type": "Point", "coordinates": [ -48.520616234716172, -22.091846294999982 ] } },
{ "type": "Feature", "properties": { "id_municipio": 3506904, "nome_municipio": "Bofete" }, "geometry": { "type": "Point", "coordinates": [ -48.251360467310164, -23.129806394500008 ] } },
{ "type": "Feature", "properties": { "id_municipio": 3507001, "nome_municipio": "Boituva" }, "geometry": { "type": "Point", "coordinates": [ -47.689625142487067, -23.285406509500007 ] } },
{ "type": "Feature", "properties": { "id_municipio": 3507100, "nome_municipio": "Bom Jesus dos Perdões" }, "geometry": { "type": "Point", "coordinates": [ -46.489044689129322, -23.173895881 ] } },
{ "type": "Feature", "properties": { "id_municipio": 3507159, "nome_municipio": "Bom Sucesso de Itararé" }, "geometry": { "type": "Point", "coordinates": [ -49.182554047901206, -24.32482785549999 ] } },
{ "type": "Feature", "properties": { "id_municipio": 3507209, "nome_municipio": "Borá" }, "geometry": { "type": "Point", "coordinates": [ -50.511262892078513, -22.235353440000011 ] } },
{ "type": "Feature", "properties": { "id_municipio": 3507308, "nome_municipio": "Boracéia" }, "geometry": { "type": "Point", "coordinates": [ -48.790975365561053, -22.167813751500006 ] } },
{ "type": "Feature", "properties": { "id_municipio": 3507407, "nome_municipio": "Borborema" }, "geometry": { "type": "Point", "coordinates": [ -49.094023453959153, -21.605918842499989 ] } },
{ "type": "Feature", "properties": { "id_municipio": 3507456, "nome_municipio": "Borebi" }, "geometry": { "type": "Point", "coordinates": [ -49.017558170856752, -22.685021510000013 ] } },
{ "type": "Feature", "properties": { "id_municipio": 3507506, "nome_municipio": "Botucatu" }, "geometry": { "type": "Point", "coordinates": [ -48.401404870750653, -22.838402007500008 ] } },
{ "type": "Feature", "properties": { "id_municipio": 3507605, "nome_municipio": "Bragança Paulista" }, "geometry": { "type": "Point", "coordinates": [ -46.564486860165431, -22.936441207 ] } },
{ "type": "Feature", "properties": { "id_municipio": 3507704, "nome_municipio": "Braúna" }, "geometry": { "type": "Point", "coordinates": [ -50.336312851745831, -21.546268925500016 ] } },
{ "type": "Feature", "properties": { "id_municipio": 3507753, "nome_municipio": "Brejo Alegre" }, "geometry": { "type": "Point", "coordinates": [ -50.211351312679653, -21.18427211849999 ] } },
{ "type": "Feature", "properties": { "id_municipio": 3507803, "nome_municipio": "Brodowski" }, "geometry": { "type": "Point", "coordinates": [ -47.610029672695646, -21.043579271000027 ] } },
{ "type": "Feature", "properties": { "id_municipio": 3507902, "nome_municipio": "Brotas" }, "geometry": { "type": "Point", "coordinates": [ -48.104184848549622, -22.289494868999981 ] } },
{ "type": "Feature", "properties": { "id_municipio": 3508009, "nome_municipio": "Buri" }, "geometry": { "type": "Point", "coordinates": [ -48.57516450228114, -23.739889025 ] } },
{ "type": "Feature", "properties": { "id_municipio": 3508108, "nome_municipio": "Buritama" }, "geometry": { "type": "Point", "coordinates": [ -50.224167884864485, -21.058858695 ] } },
{ "type": "Feature", "properties": { "id_municipio": 3508207, "nome_municipio": "Buritizal" }, "geometry": { "type": "Point", "coordinates": [ -47.703538672104131, -20.204433247 ] } },
{ "type": "Feature", "properties": { "id_municipio": 3508306, "nome_municipio": "Cabrália Paulista" }, "geometry": { "type": "Point", "coordinates": [ -49.356322634289086, -22.482143807 ] } },
{ "type": "Feature", "properties": { "id_municipio": 3508405, "nome_municipio": "Cabreúva" }, "geometry": { "type": "Point", "coordinates": [ -47.067012855236101, -23.312890313499992 ] } },
{ "type": "Feature", "properties": { "id_municipio": 3508504, "nome_municipio": "Caçapava" }, "geometry": { "type": "Point", "coordinates": [ -45.708579077671374, -23.103486039000018 ] } },
{ "type": "Feature", "properties": { "id_municipio": 3508603, "nome_municipio": "Cachoeira Paulista" }, "geometry": { "type": "Point", "coordinates": [ -44.967759806002555, -22.709549762499989 ] } },
{ "type": "Feature", "properties": { "id_municipio": 3508702, "nome_municipio": "Caconde" }, "geometry": { "type": "Point", "coordinates": [ -46.630130606330809, -21.555590293999984 ] } },
{ "type": "Feature", "properties": { "id_municipio": 3508801, "nome_municipio": "Cafelândia" }, "geometry": { "type": "Point", "coordinates": [ -49.54469675927956, -21.73179543949999 ] } },
{ "type": "Feature", "properties": { "id_municipio": 3508900, "nome_municipio": "Caiabu" }, "geometry": { "type": "Point", "coordinates": [ -51.226053043587875, -21.947067658 ] } },
{ "type": "Feature", "properties": { "id_municipio": 3509007, "nome_municipio": "Caieiras" }, "geometry": { "type": "Point", "coordinates": [ -46.741655102507863, -23.376581364499998 ] } },
{ "type": "Feature", "properties": { "id_municipio": 3509106, "nome_municipio": "Caiuá" }, "geometry": { "type": "Point", "coordinates": [ -51.95450936567125, -21.794144336500011 ] } },
{ "type": "Feature", "properties": { "id_municipio": 3509205, "nome_municipio": "Cajamar" }, "geometry": { "type": "Point", "coordinates": [ -46.866929799710107, -23.354164435 ] } },
{ "type": "Feature", "properties": { "id_municipio": 3509254, "nome_municipio": "Cajati" }, "geometry": { "type": "Point", "coordinates": [ -48.196648442338827, -24.776431460500021 ] } },
{ "type": "Feature", "properties": { "id_municipio": 3509304, "nome_municipio": "Cajobi" }, "geometry": { "type": "Point", "coordinates": [ -48.850376374669843, -20.874860872999989 ] } },
{ "type": "Feature", "properties": { "id_municipio": 3509403, "nome_municipio": "Cajuru" }, "geometry": { "type": "Point", "coordinates": [ -47.308945377424052, -21.28139563900001 ] } },
{ "type": "Feature", "properties": { "id_municipio": 3509452, "nome_municipio": "Campina do Monte Alegre" }, "geometry": { "type": "Point", "coordinates": [ -48.438303821981755, -23.611853876 ] } },
{ "type": "Feature", "properties": { "id_municipio": 3509502, "nome_municipio": "Campinas" }, "geometry": { "type": "Point", "coordinates": [ -46.988785021186033, -22.895227834499991 ] } },
{ "type": "Feature", "properties": { "id_municipio": 3509601, "nome_municipio": "Campo Limpo Paulista" }, "geometry": { "type": "Point", "coordinates": [ -46.757874062426588, -23.209793222499997 ] } },
{ "type": "Feature", "properties": { "id_municipio": 3509700, "nome_municipio": "Campos do Jordão" }, "geometry": { "type": "Point", "coordinates": [ -45.518907228036497, -22.692967791500024 ] } },
{ "type": "Feature", "properties": { "id_municipio": 3509809, "nome_municipio": "Campos Novos Paulista" }, "geometry": { "type": "Point", "coordinates": [ -49.989934996556848, -22.637001406999985 ] } },
{ "type": "Feature", "properties": { "id_municipio": 3509908, "nome_municipio": "Cananéia" }, "geometry": { "type": "Point", "coordinates": [ -48.060985453178048, -25.032107886 ] } },
{ "type": "Feature", "properties": { "id_municipio": 3509957, "nome_municipio": "Canas" }, "geometry": { "type": "Point", "coordinates": [ -45.042734533958154, -22.743308909500001 ] } },
{ "type": "Feature", "properties": { "id_municipio": 3510005, "nome_municipio": "Cândido Mota" }, "geometry": { "type": "Point", "coordinates": [ -50.427113009529307, -22.810126127499984 ] } },
{ "type": "Feature", "properties": { "id_municipio": 3510104, "nome_municipio": "Cândido Rodrigues" }, "geometry": { "type": "Point", "coordinates": [ -48.624683760193165, -21.340302014 ] } },
{ "type": "Feature", "properties": { "id_municipio": 3510153, "nome_municipio": "Canitar" }, "geometry": { "type": "Point", "coordinates": [ -49.789083165011832, -23.02234319850001 ] } },
{ "type": "Feature", "properties": { "id_municipio": 3510203, "nome_municipio": "Capão Bonito" }, "geometry": { "type": "Point", "coordinates": [ -48.16133756165101, -24.053053143499994 ] } },
{ "type": "Feature", "properties": { "id_municipio": 3510302, "nome_municipio": "Capela do Alto" }, "geometry": { "type": "Point", "coordinates": [ -47.727280474239855, -23.473006962999989 ] } },
{ "type": "Feature", "properties": { "id_municipio": 3510401, "nome_municipio": "Capivari" }, "geometry": { "type": "Point", "coordinates": [ -47.496659896079407, -22.984837211500007 ] } },
{ "type": "Feature", "properties": { "id_municipio": 3510500, "nome_municipio": "Caraguatatuba" }, "geometry": { "type": "Point", "coordinates": [ -45.458045190098815, -23.621394531500016 ] } },
{ "type": "Feature", "properties": { "id_municipio": 3510609, "nome_municipio": "Carapicuíba" }, "geometry": { "type": "Point", "coordinates": [ -46.841466520793482, -23.547185206000023 ] } },
{ "type": "Feature", "properties": { "id_municipio": 3510708, "nome_municipio": "Cardoso" }, "geometry": { "type": "Point", "coordinates": [ -49.932816966598125, -20.06694839650001 ] } },
{ "type": "Feature", "properties": { "id_municipio": 3510807, "nome_municipio": "Casa Branca" }, "geometry": { "type": "Point", "coordinates": [ -47.071973673872868, -21.78911914 ] } },
{ "type": "Feature", "properties": { "id_municipio": 3510906, "nome_municipio": "Cássia dos Coqueiros" }, "geometry": { "type": "Point", "coordinates": [ -47.145180974115306, -21.266820068000015 ] } },
{ "type": "Feature", "properties": { "id_municipio": 3511003, "nome_municipio": "Castilho" }, "geometry": { "type": "Point", "coordinates": [ -51.537497011844181, -20.899005249999988 ] } },
{ "type": "Feature", "properties": { "id_municipio": 3511102, "nome_municipio": "Catanduva" }, "geometry": { "type": "Point", "coordinates": [ -48.981204410270507, -21.130039101000023 ] } },
{ "type": "Feature", "properties": { "id_municipio": 3511201, "nome_municipio": "Catiguá" }, "geometry": { "type": "Point", "coordinates": [ -49.052229866551841, -21.067643535499997 ] } },
{ "type": "Feature", "properties": { "id_municipio": 3511300, "nome_municipio": "Cedral" }, "geometry": { "type": "Point", "coordinates": [ -49.285950851957935, -20.916554071500002 ] } },
{ "type": "Feature", "properties": { "id_municipio": 3511409, "nome_municipio": "Cerqueira César" }, "geometry": { "type": "Point", "coordinates": [ -49.159206922108574, -23.0732664425 ] } },
{ "type": "Feature", "properties": { "id_municipio": 3511508, "nome_municipio": "Cerquilho" }, "geometry": { "type": "Point", "coordinates": [ -47.748467440119484, -23.187283937500013 ] } },
{ "type": "Feature", "properties": { "id_municipio": 3511607, "nome_municipio": "Cesário Lange" }, "geometry": { "type": "Point", "coordinates": [ -47.893425460925357, -23.216631533 ] } },
{ "type": "Feature", "properties": { "id_municipio": 3511706, "nome_municipio": "Charqueada" }, "geometry": { "type": "Point", "coordinates": [ -47.743490156639929, -22.525290915 ] } },
{ "type": "Feature", "properties": { "id_municipio": 3511904, "nome_municipio": "Clementina" }, "geometry": { "type": "Point", "coordinates": [ -50.47394487337283, -21.574496097500003 ] } },
{ "type": "Feature", "properties": { "id_municipio": 3512001, "nome_municipio": "Colina" }, "geometry": { "type": "Point", "coordinates": [ -48.600621169054619, -20.734486753999988 ] } },
{ "type": "Feature", "properties": { "id_municipio": 3512100, "nome_municipio": "Colômbia" }, "geometry": { "type": "Point", "coordinates": [ -48.696559256028621, -20.274544348500001 ] } },
{ "type": "Feature", "properties": { "id_municipio": 3512209, "nome_municipio": "Conchal" }, "geometry": { "type": "Point", "coordinates": [ -47.135924443252115, -22.383285944499988 ] } },
{ "type": "Feature", "properties": { "id_municipio": 3512308, "nome_municipio": "Conchas" }, "geometry": { "type": "Point", "coordinates": [ -48.035335799006319, -22.962046575000016 ] } },
{ "type": "Feature", "properties": { "id_municipio": 3512407, "nome_municipio": "Cordeirópolis" }, "geometry": { "type": "Point", "coordinates": [ -47.402375193429123, -22.4775920875 ] } },
{ "type": "Feature", "properties": { "id_municipio": 3512506, "nome_municipio": "Coroados" }, "geometry": { "type": "Point", "coordinates": [ -50.284820378608671, -21.36245822250001 ] } },
{ "type": "Feature", "properties": { "id_municipio": 3512605, "nome_municipio": "Coronel Macedo" }, "geometry": { "type": "Point", "coordinates": [ -49.331738508960328, -23.630693868 ] } },
{ "type": "Feature", "properties": { "id_municipio": 3512704, "nome_municipio": "Corumbataí" }, "geometry": { "type": "Point", "coordinates": [ -47.59236220099725, -22.242157714499996 ] } },
{ "type": "Feature", "properties": { "id_municipio": 3512803, "nome_municipio": "Cosmópolis" }, "geometry": { "type": "Point", "coordinates": [ -47.18880795289725, -22.652705158 ] } },
{ "type": "Feature", "properties": { "id_municipio": 3512902, "nome_municipio": "Cosmorama" }, "geometry": { "type": "Point", "coordinates": [ -49.768148824795446, -20.423682050999986 ] } },
{ "type": "Feature", "properties": { "id_municipio": 3513009, "nome_municipio": "Cotia" }, "geometry": { "type": "Point", "coordinates": [ -46.979950652812548, -23.683189042500004 ] } },
{ "type": "Feature", "properties": { "id_municipio": 3513108, "nome_municipio": "Cravinhos" }, "geometry": { "type": "Point", "coordinates": [ -47.7233845454532, -21.312181229499998 ] } },
{ "type": "Feature", "properties": { "id_municipio": 3513207, "nome_municipio": "Cristais Paulista" }, "geometry": { "type": "Point", "coordinates": [ -47.402031300843809, -20.365909868999978 ] } },
{ "type": "Feature", "properties": { "id_municipio": 3513306, "nome_municipio": "Cruzália" }, "geometry": { "type": "Point", "coordinates": [ -50.769802563150293, -22.734939873499997 ] } },
{ "type": "Feature", "properties": { "id_municipio": 3513405, "nome_municipio": "Cruzeiro" }, "geometry": { "type": "Point", "coordinates": [ -45.01786025926144, -22.561403304500004 ] } },
{ "type": "Feature", "properties": { "id_municipio": 3513504, "nome_municipio": "Cubatão" }, "geometry": { "type": "Point", "coordinates": [ -46.414031348878879, -23.861377154500019 ] } },
{ "type": "Feature", "properties": { "id_municipio": 3513603, "nome_municipio": "Cunha" }, "geometry": { "type": "Point", "coordinates": [ -44.968877577310714, -23.056110261499981 ] } },
{ "type": "Feature", "properties": { "id_municipio": 3513702, "nome_municipio": "Descalvado" }, "geometry": { "type": "Point", "coordinates": [ -47.650151121503896, -21.880008908 ] } },
{ "type": "Feature", "properties": { "id_municipio": 3513801, "nome_municipio": "Diadema" }, "geometry": { "type": "Point", "coordinates": [ -46.608657353443448, -23.698392627 ] } },
{ "type": "Feature", "properties": { "id_municipio": 3513850, "nome_municipio": "Dirce Reis" }, "geometry": { "type": "Point", "coordinates": [ -50.627393329806537, -20.445493180499994 ] } },
{ "type": "Feature", "properties": { "id_municipio": 3513900, "nome_municipio": "Divinolândia" }, "geometry": { "type": "Point", "coordinates": [ -46.713659095553879, -21.668917596499995 ] } },
{ "type": "Feature", "properties": { "id_municipio": 3514007, "nome_municipio": "Dobrada" }, "geometry": { "type": "Point", "coordinates": [ -48.362220258308824, -21.514934542500015 ] } },
{ "type": "Feature", "properties": { "id_municipio": 3514106, "nome_municipio": "Dois Córregos" }, "geometry": { "type": "Point", "coordinates": [ -48.334600299451438, -22.403346102500024 ] } },
{ "type": "Feature", "properties": { "id_municipio": 3514205, "nome_municipio": "Dolcinópolis" }, "geometry": { "type": "Point", "coordinates": [ -50.526811181018203, -20.105682169 ] } },
{ "type": "Feature", "properties": { "id_municipio": 3514304, "nome_municipio": "Dourado" }, "geometry": { "type": "Point", "coordinates": [ -48.32304105285256, -22.120652481500002 ] } },
{ "type": "Feature", "properties": { "id_municipio": 3514403, "nome_municipio": "Dracena" }, "geometry": { "type": "Point", "coordinates": [ -51.587131132197641, -21.556674894 ] } },
{ "type": "Feature", "properties": { "id_municipio": 3514502, "nome_municipio": "Duartina" }, "geometry": { "type": "Point", "coordinates": [ -49.409806165076176, -22.39850636 ] } },
{ "type": "Feature", "properties": { "id_municipio": 3514601, "nome_municipio": "Dumont" }, "geometry": { "type": "Point", "coordinates": [ -47.981302453298333, -21.245794436000011 ] } },
{ "type": "Feature", "properties": { "id_municipio": 3514700, "nome_municipio": "Echaporã" }, "geometry": { "type": "Point", "coordinates": [ -50.211209766808388, -22.41964146 ] } },
{ "type": "Feature", "properties": { "id_municipio": 3514809, "nome_municipio": "Eldorado" }, "geometry": { "type": "Point", "coordinates": [ -48.196262136838023, -24.500436714000017 ] } },
{ "type": "Feature", "properties": { "id_municipio": 3514908, "nome_municipio": "Elias Fausto" }, "geometry": { "type": "Point", "coordinates": [ -47.357768906983367, -23.075656712500006 ] } },
{ "type": "Feature", "properties": { "id_municipio": 3514924, "nome_municipio": "Elisiário" }, "geometry": { "type": "Point", "coordinates": [ -49.091733981357777, -21.15326542950001 ] } },
{ "type": "Feature", "properties": { "id_municipio": 3514957, "nome_municipio": "Embaúba" }, "geometry": { "type": "Point", "coordinates": [ -48.839198915110607, -20.953647635500005 ] } },
{ "type": "Feature", "properties": { "id_municipio": 3515004, "nome_municipio": "Embu das Artes" }, "geometry": { "type": "Point", "coordinates": [ -46.853840297322542, -23.649123906 ] } },
{ "type": "Feature", "properties": { "id_municipio": 3515103, "nome_municipio": "Embu-Guaçu" }, "geometry": { "type": "Point", "coordinates": [ -46.819486825560176, -23.852191303000012 ] } },
{ "type": "Feature", "properties": { "id_municipio": 3515129, "nome_municipio": "Emilianópolis" }, "geometry": { "type": "Point", "coordinates": [ -51.464851997501398, -21.788539031499994 ] } },
{ "type": "Feature", "properties": { "id_municipio": 3515152, "nome_municipio": "Engenheiro Coelho" }, "geometry": { "type": "Point", "coordinates": [ -47.199982757399965, -22.478873639 ] } },
{ "type": "Feature", "properties": { "id_municipio": 3515186, "nome_municipio": "Espírito Santo do Pinhal" }, "geometry": { "type": "Point", "coordinates": [ -46.784148712687525, -22.185408325500021 ] } },
{ "type": "Feature", "properties": { "id_municipio": 3515194, "nome_municipio": "Espírito Santo do Turvo" }, "geometry": { "type": "Point", "coordinates": [ -49.422591807247976, -22.663226803999976 ] } },
{ "type": "Feature", "properties": { "id_municipio": 3515202, "nome_municipio": "Estrela d`Oeste" }, "geometry": { "type": "Point", "coordinates": [ -50.411197538515509, -20.256686146000021 ] } },
{ "type": "Feature", "properties": { "id_municipio": 3515301, "nome_municipio": "Estrela do Norte" }, "geometry": { "type": "Point", "coordinates": [ -51.665764006036298, -22.482797417499995 ] } },
{ "type": "Feature", "properties": { "id_municipio": 3515350, "nome_municipio": "Euclides da Cunha Paulista" }, "geometry": { "type": "Point", "coordinates": [ -52.588565688030812, -22.511422281 ] } },
{ "type": "Feature", "properties": { "id_municipio": 3515400, "nome_municipio": "Fartura" }, "geometry": { "type": "Point", "coordinates": [ -49.498258495324222, -23.399835164 ] } },
{ "type": "Feature", "properties": { "id_municipio": 3515509, "nome_municipio": "Fernandópolis" }, "geometry": { "type": "Point", "coordinates": [ -50.247097978008924, -20.283418015999985 ] } },
{ "type": "Feature", "properties": { "id_municipio": 3515608, "nome_municipio": "Fernando Prestes" }, "geometry": { "type": "Point", "coordinates": [ -48.69537287243508, -21.320968526500025 ] } },
{ "type": "Feature", "properties": { "id_municipio": 3515657, "nome_municipio": "Fernão" }, "geometry": { "type": "Point", "coordinates": [ -49.545652736810268, -22.376487711499976 ] } },
{ "type": "Feature", "properties": { "id_municipio": 3515707, "nome_municipio": "Ferraz de Vasconcelos" }, "geometry": { "type": "Point", "coordinates": [ -46.368797820830423, -23.564450554000018 ] } },
{ "type": "Feature", "properties": { "id_municipio": 3515806, "nome_municipio": "Flora Rica" }, "geometry": { "type": "Point", "coordinates": [ -51.382685248982334, -21.701388090499989 ] } },
{ "type": "Feature", "properties": { "id_municipio": 3515905, "nome_municipio": "Floreal" }, "geometry": { "type": "Point", "coordinates": [ -50.143399621138187, -20.646457347999984 ] } },
{ "type": "Feature", "properties": { "id_municipio": 3516002, "nome_municipio": "Flórida Paulista" }, "geometry": { "type": "Point", "coordinates": [ -51.168073205670112, -21.548939277500011 ] } },
{ "type": "Feature", "properties": { "id_municipio": 3516101, "nome_municipio": "Florínia" }, "geometry": { "type": "Point", "coordinates": [ -50.681530965802416, -22.868022854 ] } },
{ "type": "Feature", "properties": { "id_municipio": 3516200, "nome_municipio": "Franca" }, "geometry": { "type": "Point", "coordinates": [ -47.390653241908076, -20.594966730499976 ] } },
{ "type": "Feature", "properties": { "id_municipio": 3516309, "nome_municipio": "Francisco Morato" }, "geometry": { "type": "Point", "coordinates": [ -46.728597547292864, -23.276239058499982 ] } },
{ "type": "Feature", "properties": { "id_municipio": 3516408, "nome_municipio": "Franco da Rocha" }, "geometry": { "type": "Point", "coordinates": [ -46.73453797544154, -23.312696735 ] } },
{ "type": "Feature", "properties": { "id_municipio": 3516507, "nome_municipio": "Gabriel Monteiro" }, "geometry": { "type": "Point", "coordinates": [ -50.551853992482307, -21.507713261499987 ] } },
{ "type": "Feature", "properties": { "id_municipio": 3516606, "nome_municipio": "Gália" }, "geometry": { "type": "Point", "coordinates": [ -49.587905699399911, -22.325061398499997 ] } },
{ "type": "Feature", "properties": { "id_municipio": 3516705, "nome_municipio": "Garça" }, "geometry": { "type": "Point", "coordinates": [ -49.660042893373543, -22.229096526500001 ] } },
{ "type": "Feature", "properties": { "id_municipio": 3516804, "nome_municipio": "Gastão Vidigal" }, "geometry": { "type": "Point", "coordinates": [ -50.207452495751951, -20.805521914499991 ] } },
{ "type": "Feature", "properties": { "id_municipio": 3516853, "nome_municipio": "Gavião Peixoto" }, "geometry": { "type": "Point", "coordinates": [ -48.424684605512716, -21.779850320500003 ] } },
{ "type": "Feature", "properties": { "id_municipio": 3516903, "nome_municipio": "General Salgado" }, "geometry": { "type": "Point", "coordinates": [ -50.390832425636077, -20.643167 ] } },
{ "type": "Feature", "properties": { "id_municipio": 3517000, "nome_municipio": "Getulina" }, "geometry": { "type": "Point", "coordinates": [ -49.997582490386463, -21.810777869 ] } },
{ "type": "Feature", "properties": { "id_municipio": 3517109, "nome_municipio": "Glicério" }, "geometry": { "type": "Point", "coordinates": [ -50.194919868510027, -21.317267405999985 ] } },
{ "type": "Feature", "properties": { "id_municipio": 3517208, "nome_municipio": "Guaiçara" }, "geometry": { "type": "Point", "coordinates": [ -49.73583308725145, -21.553108245499999 ] } },
{ "type": "Feature", "properties": { "id_municipio": 3517307, "nome_municipio": "Guaimbê" }, "geometry": { "type": "Point", "coordinates": [ -49.847360619477712, -21.865039723500018 ] } },
{ "type": "Feature", "properties": { "id_municipio": 3517406, "nome_municipio": "Guaíra" }, "geometry": { "type": "Point", "coordinates": [ -48.339012201395562, -20.335636966500005 ] } },
{ "type": "Feature", "properties": { "id_municipio": 3517505, "nome_municipio": "Guapiaçu" }, "geometry": { "type": "Point", "coordinates": [ -49.199904114267383, -20.722994549 ] } },
{ "type": "Feature", "properties": { "id_municipio": 3517604, "nome_municipio": "Guapiara" }, "geometry": { "type": "Point", "coordinates": [ -48.538520842773138, -24.212401333 ] } },
{ "type": "Feature", "properties": { "id_municipio": 3517703, "nome_municipio": "Guará" }, "geometry": { "type": "Point", "coordinates": [ -47.750716869680033, -20.492326114500003 ] } },
{ "type": "Feature", "properties": { "id_municipio": 3517802, "nome_municipio": "Guaraçaí" }, "geometry": { "type": "Point", "coordinates": [ -51.255582873407306, -21.071922559499995 ] } },
{ "type": "Feature", "properties": { "id_municipio": 3517901, "nome_municipio": "Guaraci" }, "geometry": { "type": "Point", "coordinates": [ -49.022193629358156, -20.370075489499982 ] } },
{ "type": "Feature", "properties": { "id_municipio": 3518008, "nome_municipio": "Guarani d`Oeste" }, "geometry": { "type": "Point", "coordinates": [ -50.351334979312846, -20.062241202000024 ] } },
{ "type": "Feature", "properties": { "id_municipio": 3518107, "nome_municipio": "Guarantã" }, "geometry": { "type": "Point", "coordinates": [ -49.596273456469703, -21.913312608500007 ] } },
{ "type": "Feature", "properties": { "id_municipio": 3518206, "nome_municipio": "Guararapes" }, "geometry": { "type": "Point", "coordinates": [ -50.621488370077884, -21.27523661 ] } },
{ "type": "Feature", "properties": { "id_municipio": 3518305, "nome_municipio": "Guararema" }, "geometry": { "type": "Point", "coordinates": [ -46.066381668815772, -23.425340457499999 ] } },
{ "type": "Feature", "properties": { "id_municipio": 3518404, "nome_municipio": "Guaratinguetá" }, "geometry": { "type": "Point", "coordinates": [ -45.257519669023949, -22.812997523 ] } },
{ "type": "Feature", "properties": { "id_municipio": 3518503, "nome_municipio": "Guareí" }, "geometry": { "type": "Point", "coordinates": [ -48.214542114203297, -23.376291875500016 ] } },
{ "type": "Feature", "properties": { "id_municipio": 3518602, "nome_municipio": "Guariba" }, "geometry": { "type": "Point", "coordinates": [ -48.231740264739926, -21.396509738 ] } },
{ "type": "Feature", "properties": { "id_municipio": 3518701, "nome_municipio": "Guarujá" }, "geometry": { "type": "Point", "coordinates": [ -46.238794173955142, -23.950564062000012 ] } },
{ "type": "Feature", "properties": { "id_municipio": 3518800, "nome_municipio": "Guarulhos" }, "geometry": { "type": "Point", "coordinates": [ -46.460136803007188, -23.391977171500002 ] } },
{ "type": "Feature", "properties": { "id_municipio": 3518859, "nome_municipio": "Guatapará" }, "geometry": { "type": "Point", "coordinates": [ -48.002191622166421, -21.451575389500022 ] } },
{ "type": "Feature", "properties": { "id_municipio": 3518909, "nome_municipio": "Guzolândia" }, "geometry": { "type": "Point", "coordinates": [ -50.701035032603421, -20.622706210999979 ] } },
{ "type": "Feature", "properties": { "id_municipio": 3519006, "nome_municipio": "Herculândia" }, "geometry": { "type": "Point", "coordinates": [ -50.347544733144005, -21.943750738 ] } },
{ "type": "Feature", "properties": { "id_municipio": 3519055, "nome_municipio": "Holambra" }, "geometry": { "type": "Point", "coordinates": [ -47.057296486812206, -22.629262267 ] } },
{ "type": "Feature", "properties": { "id_municipio": 3519071, "nome_municipio": "Hortolândia" }, "geometry": { "type": "Point", "coordinates": [ -47.198004616378967, -22.869276050500019 ] } },
{ "type": "Feature", "properties": { "id_municipio": 3519105, "nome_municipio": "Iacanga" }, "geometry": { "type": "Point", "coordinates": [ -49.01524909690437, -21.900768777 ] } },
{ "type": "Feature", "properties": { "id_municipio": 3519204, "nome_municipio": "Iacri" }, "geometry": { "type": "Point", "coordinates": [ -50.624800198986833, -21.795697297499999 ] } },
{ "type": "Feature", "properties": { "id_municipio": 3519253, "nome_municipio": "Iaras" }, "geometry": { "type": "Point", "coordinates": [ -49.102146008900846, -22.812531426499987 ] } },
{ "type": "Feature", "properties": { "id_municipio": 3519303, "nome_municipio": "Ibaté" }, "geometry": { "type": "Point", "coordinates": [ -48.007839931580527, -21.940085114 ] } },
{ "type": "Feature", "properties": { "id_municipio": 3519402, "nome_municipio": "Ibirá" }, "geometry": { "type": "Point", "coordinates": [ -49.223548592251632, -21.070451468500011 ] } },
{ "type": "Feature", "properties": { "id_municipio": 3519501, "nome_municipio": "Ibirarema" }, "geometry": { "type": "Point", "coordinates": [ -50.058199921911516, -22.81083895 ] } },
{ "type": "Feature", "properties": { "id_municipio": 3519600, "nome_municipio": "Ibitinga" }, "geometry": { "type": "Point", "coordinates": [ -48.83751349239482, -21.7890216925 ] } },
{ "type": "Feature", "properties": { "id_municipio": 3519709, "nome_municipio": "Ibiúna" }, "geometry": { "type": "Point", "coordinates": [ -47.134476671561089, -23.809938902 ] } },
{ "type": "Feature", "properties": { "id_municipio": 3519808, "nome_municipio": "Icém" }, "geometry": { "type": "Point", "coordinates": [ -49.182833507195703, -20.365949676500009 ] } },
{ "type": "Feature", "properties": { "id_municipio": 3519907, "nome_municipio": "Iepê" }, "geometry": { "type": "Point", "coordinates": [ -51.058426875049996, -22.633399884499994 ] } },
{ "type": "Feature", "properties": { "id_municipio": 3520004, "nome_municipio": "Igaraçu do Tietê" }, "geometry": { "type": "Point", "coordinates": [ -48.563132184466724, -22.543140409499983 ] } },
{ "type": "Feature", "properties": { "id_municipio": 3520103, "nome_municipio": "Igarapava" }, "geometry": { "type": "Point", "coordinates": [ -47.647747567333091, -20.068885094 ] } },
{ "type": "Feature", "properties": { "id_municipio": 3520202, "nome_municipio": "Igaratá" }, "geometry": { "type": "Point", "coordinates": [ -46.157440380752185, -23.121125194 ] } },
{ "type": "Feature", "properties": { "id_municipio": 3520301, "nome_municipio": "Iguape" }, "geometry": { "type": "Point", "coordinates": [ -47.484692520336303, -24.59135222 ] } },
{ "type": "Feature", "properties": { "id_municipio": 3520400, "nome_municipio": "Ilhabela" }, "geometry": { "type": "Point", "coordinates": [ -45.343797531147658, -23.8438851075 ] } },
{ "type": "Feature", "properties": { "id_municipio": 3520426, "nome_municipio": "Ilha Comprida" }, "geometry": { "type": "Point", "coordinates": [ -47.737615849519166, -24.864140185000025 ] } },
{ "type": "Feature", "properties": { "id_municipio": 3520442, "nome_municipio": "Ilha Solteira" }, "geometry": { "type": "Point", "coordinates": [ -51.326824133251705, -20.480898374 ] } },
{ "type": "Feature", "properties": { "id_municipio": 3520509, "nome_municipio": "Indaiatuba" }, "geometry": { "type": "Point", "coordinates": [ -47.221479833982251, -23.111918825499998 ] } },
{ "type": "Feature", "properties": { "id_municipio": 3520608, "nome_municipio": "Indiana" }, "geometry": { "type": "Point", "coordinates": [ -51.276565766134226, -22.133137168000019 ] } },
{ "type": "Feature", "properties": { "id_municipio": 3520707, "nome_municipio": "Indiaporã" }, "geometry": { "type": "Point", "coordinates": [ -50.264508946195733, -19.956871680500001 ] } },
{ "type": "Feature", "properties": { "id_municipio": 3520806, "nome_municipio": "Inúbia Paulista" }, "geometry": { "type": "Point", "coordinates": [ -50.960940070009606, -21.7268236285 ] } },
{ "type": "Feature", "properties": { "id_municipio": 3520905, "nome_municipio": "Ipaussu" }, "geometry": { "type": "Point", "coordinates": [ -49.61065555758897, -23.06234337150002 ] } },
{ "type": "Feature", "properties": { "id_municipio": 3521002, "nome_municipio": "Iperó" }, "geometry": { "type": "Point", "coordinates": [ -47.616357471415967, -23.405374637 ] } },
{ "type": "Feature", "properties": { "id_municipio": 3521101, "nome_municipio": "Ipeúna" }, "geometry": { "type": "Point", "coordinates": [ -47.721165156738707, -22.43439388500002 ] } },
{ "type": "Feature", "properties": { "id_municipio": 3521150, "nome_municipio": "Ipiguá" }, "geometry": { "type": "Point", "coordinates": [ -49.402940555245003, -20.646157712500013 ] } },
{ "type": "Feature", "properties": { "id_municipio": 3521200, "nome_municipio": "Iporanga" }, "geometry": { "type": "Point", "coordinates": [ -48.533870229379133, -24.489389093499994 ] } },
{ "type": "Feature", "properties": { "id_municipio": 3521309, "nome_municipio": "Ipuã" }, "geometry": { "type": "Point", "coordinates": [ -48.053350955475565, -20.410937867500024 ] } },
{ "type": "Feature", "properties": { "id_municipio": 3521408, "nome_municipio": "Iracemápolis" }, "geometry": { "type": "Point", "coordinates": [ -47.519898951917, -22.616929958500009 ] } },
{ "type": "Feature", "properties": { "id_municipio": 3521507, "nome_municipio": "Irapuã" }, "geometry": { "type": "Point", "coordinates": [ -49.381651502006179, -21.273972113000013 ] } },
{ "type": "Feature", "properties": { "id_municipio": 3521606, "nome_municipio": "Irapuru" }, "geometry": { "type": "Point", "coordinates": [ -51.340179131440763, -21.468078086500014 ] } },
{ "type": "Feature", "properties": { "id_municipio": 3521705, "nome_municipio": "Itaberá" }, "geometry": { "type": "Point", "coordinates": [ -49.124026068517537, -23.906411161 ] } },
{ "type": "Feature", "properties": { "id_municipio": 3521804, "nome_municipio": "Itaí" }, "geometry": { "type": "Point", "coordinates": [ -49.038001805942791, -23.483427954500002 ] } },
{ "type": "Feature", "properties": { "id_municipio": 3521903, "nome_municipio": "Itajobi" }, "geometry": { "type": "Point", "coordinates": [ -49.044818057192089, -21.366273740999986 ] } },
{ "type": "Feature", "properties": { "id_municipio": 3522000, "nome_municipio": "Itaju" }, "geometry": { "type": "Point", "coordinates": [ -48.781600252021406, -21.95582938550001 ] } },
{ "type": "Feature", "properties": { "id_municipio": 3522109, "nome_municipio": "Itanhaém" }, "geometry": { "type": "Point", "coordinates": [ -46.851583395574693, -24.095386367 ] } },
{ "type": "Feature", "properties": { "id_municipio": 3522158, "nome_municipio": "Itaóca" }, "geometry": { "type": "Point", "coordinates": [ -48.842162208739154, -24.613859861500003 ] } },
{ "type": "Feature", "properties": { "id_municipio": 3522208, "nome_municipio": "Itapecerica da Serra" }, "geometry": { "type": "Point", "coordinates": [ -46.864481520381965, -23.73606243750001 ] } },
{ "type": "Feature", "properties": { "id_municipio": 3522307, "nome_municipio": "Itapetininga" }, "geometry": { "type": "Point", "coordinates": [ -48.137745595781908, -23.634602397 ] } },
{ "type": "Feature", "properties": { "id_municipio": 3522406, "nome_municipio": "Itapeva" }, "geometry": { "type": "Point", "coordinates": [ -48.882725632724757, -23.896121658499993 ] } },
{ "type": "Feature", "properties": { "id_municipio": 3522505, "nome_municipio": "Itapevi" }, "geometry": { "type": "Point", "coordinates": [ -46.959914055279562, -23.55091336549998 ] } },
{ "type": "Feature", "properties": { "id_municipio": 3522604, "nome_municipio": "Itapira" }, "geometry": { "type": "Point", "coordinates": [ -46.747911659496637, -22.435951467000024 ] } },
{ "type": "Feature", "properties": { "id_municipio": 3522653, "nome_municipio": "Itapirapuã Paulista" }, "geometry": { "type": "Point", "coordinates": [ -49.22693644784875, -24.556863017499978 ] } },
{ "type": "Feature", "properties": { "id_municipio": 3522703, "nome_municipio": "Itápolis" }, "geometry": { "type": "Point", "coordinates": [ -48.815267926103481, -21.543402562500006 ] } },
{ "type": "Feature", "properties": { "id_municipio": 3522802, "nome_municipio": "Itaporanga" }, "geometry": { "type": "Point", "coordinates": [ -49.426848234334471, -23.650507536500015 ] } },
{ "type": "Feature", "properties": { "id_municipio": 3522901, "nome_municipio": "Itapuí" }, "geometry": { "type": "Point", "coordinates": [ -48.699773197165925, -22.248441176500023 ] } },
{ "type": "Feature", "properties": { "id_municipio": 3523008, "nome_municipio": "Itapura" }, "geometry": { "type": "Point", "coordinates": [ -51.456343616484745, -20.577523069999984 ] } },
{ "type": "Feature", "properties": { "id_municipio": 3523107, "nome_municipio": "Itaquaquecetuba" }, "geometry": { "type": "Point", "coordinates": [ -46.338722981040036, -23.463945526499998 ] } },
{ "type": "Feature", "properties": { "id_municipio": 3523206, "nome_municipio": "Itararé" }, "geometry": { "type": "Point", "coordinates": [ -49.302302632381199, -24.101288940999979 ] } },
{ "type": "Feature", "properties": { "id_municipio": 3523305, "nome_municipio": "Itariri" }, "geometry": { "type": "Point", "coordinates": [ -47.109927803605956, -24.28559685899998 ] } },
{ "type": "Feature", "properties": { "id_municipio": 3523404, "nome_municipio": "Itatiba" }, "geometry": { "type": "Point", "coordinates": [ -46.822327939389318, -23.013553966999979 ] } },
{ "type": "Feature", "properties": { "id_municipio": 3523503, "nome_municipio": "Itatinga" }, "geometry": { "type": "Point", "coordinates": [ -48.598917871387833, -23.141980295499991 ] } },
{ "type": "Feature", "properties": { "id_municipio": 3523602, "nome_municipio": "Itirapina" }, "geometry": { "type": "Point", "coordinates": [ -47.821356219618373, -22.292630361000022 ] } },
{ "type": "Feature", "properties": { "id_municipio": 3523701, "nome_municipio": "Itirapuã" }, "geometry": { "type": "Point", "coordinates": [ -47.174661750450298, -20.648487361 ] } },
{ "type": "Feature", "properties": { "id_municipio": 3523800, "nome_municipio": "Itobi" }, "geometry": { "type": "Point", "coordinates": [ -46.907684748962211, -21.757832885499994 ] } },
{ "type": "Feature", "properties": { "id_municipio": 3523909, "nome_municipio": "Itu" }, "geometry": { "type": "Point", "coordinates": [ -47.2856578448162, -23.297391143 ] } },
{ "type": "Feature", "properties": { "id_municipio": 3524006, "nome_municipio": "Itupeva" }, "geometry": { "type": "Point", "coordinates": [ -47.077167090440881, -23.144680449999981 ] } },
{ "type": "Feature", "properties": { "id_municipio": 3524105, "nome_municipio": "Ituverava" }, "geometry": { "type": "Point", "coordinates": [ -47.824486507412246, -20.31842968 ] } },
{ "type": "Feature", "properties": { "id_municipio": 3524204, "nome_municipio": "Jaborandi" }, "geometry": { "type": "Point", "coordinates": [ -48.414082718049158, -20.657618633 ] } },
{ "type": "Feature", "properties": { "id_municipio": 3524303, "nome_municipio": "Jaboticabal" }, "geometry": { "type": "Point", "coordinates": [ -48.30820162828627, -21.209558634000018 ] } },
{ "type": "Feature", "properties": { "id_municipio": 3524402, "nome_municipio": "Jacareí" }, "geometry": { "type": "Point", "coordinates": [ -46.00634125680142, -23.295734695 ] } },
{ "type": "Feature", "properties": { "id_municipio": 3524501, "nome_municipio": "Jaci" }, "geometry": { "type": "Point", "coordinates": [ -49.588381725184846, -20.942555614500009 ] } },
{ "type": "Feature", "properties": { "id_municipio": 3524600, "nome_municipio": "Jacupiranga" }, "geometry": { "type": "Point", "coordinates": [ -48.02101886968741, -24.778609433999975 ] } },
{ "type": "Feature", "properties": { "id_municipio": 3524709, "nome_municipio": "Jaguariúna" }, "geometry": { "type": "Point", "coordinates": [ -47.002576678674018, -22.680718030500003 ] } },
{ "type": "Feature", "properties": { "id_municipio": 3524808, "nome_municipio": "Jales" }, "geometry": { "type": "Point", "coordinates": [ -50.525469608217776, -20.2641096065 ] } },
{ "type": "Feature", "properties": { "id_municipio": 3524907, "nome_municipio": "Jambeiro" }, "geometry": { "type": "Point", "coordinates": [ -45.710703849126446, -23.275916981 ] } },
{ "type": "Feature", "properties": { "id_municipio": 3525003, "nome_municipio": "Jandira" }, "geometry": { "type": "Point", "coordinates": [ -46.904551699302019, -23.540731161 ] } },
{ "type": "Feature", "properties": { "id_municipio": 3525102, "nome_municipio": "Jardinópolis" }, "geometry": { "type": "Point", "coordinates": [ -47.823202541437595, -21.000862596499985 ] } },
{ "type": "Feature", "properties": { "id_municipio": 3525201, "nome_municipio": "Jarinu" }, "geometry": { "type": "Point", "coordinates": [ -46.720437490938416, -23.096008684 ] } },
{ "type": "Feature", "properties": { "id_municipio": 3525300, "nome_municipio": "Jaú" }, "geometry": { "type": "Point", "coordinates": [ -48.558964341364444, -22.301011590499996 ] } },
{ "type": "Feature", "properties": { "id_municipio": 3525409, "nome_municipio": "Jeriquara" }, "geometry": { "type": "Point", "coordinates": [ -47.560731917854909, -20.341442758 ] } },
{ "type": "Feature", "properties": { "id_municipio": 3525508, "nome_municipio": "Joanópolis" }, "geometry": { "type": "Point", "coordinates": [ -46.211982226470838, -22.934901147 ] } },
{ "type": "Feature", "properties": { "id_municipio": 3525607, "nome_municipio": "João Ramalho" }, "geometry": { "type": "Point", "coordinates": [ -50.773967463759035, -22.232869056 ] } },
{ "type": "Feature", "properties": { "id_municipio": 3525706, "nome_municipio": "José Bonifácio" }, "geometry": { "type": "Point", "coordinates": [ -49.757943036324171, -21.097019434499998 ] } },
{ "type": "Feature", "properties": { "id_municipio": 3525805, "nome_municipio": "Júlio Mesquita" }, "geometry": { "type": "Point", "coordinates": [ -49.80998983248309, -21.975588392499986 ] } },
{ "type": "Feature", "properties": { "id_municipio": 3525854, "nome_municipio": "Jumirim" }, "geometry": { "type": "Point", "coordinates": [ -47.778512050104496, -23.100859469499994 ] } },
{ "type": "Feature", "properties": { "id_municipio": 3525904, "nome_municipio": "Jundiaí" }, "geometry": { "type": "Point", "coordinates": [ -46.939509666080738, -23.201817659 ] } },
{ "type": "Feature", "properties": { "id_municipio": 3526001, "nome_municipio": "Junqueirópolis" }, "geometry": { "type": "Point", "coordinates": [ -51.42689416106991, -21.463520373499989 ] } },
{ "type": "Feature", "properties": { "id_municipio": 3526100, "nome_municipio": "Juquiá" }, "geometry": { "type": "Point", "coordinates": [ -47.662187961690179, -24.21612852749999 ] } },
{ "type": "Feature", "properties": { "id_municipio": 3526209, "nome_municipio": "Juquitiba" }, "geometry": { "type": "Point", "coordinates": [ -47.013578348651208, -23.949659646000015 ] } },
{ "type": "Feature", "properties": { "id_municipio": 3526308, "nome_municipio": "Lagoinha" }, "geometry": { "type": "Point", "coordinates": [ -45.210388198878867, -23.09805760750001 ] } },
{ "type": "Feature", "properties": { "id_municipio": 3526407, "nome_municipio": "Laranjal Paulista" }, "geometry": { "type": "Point", "coordinates": [ -47.858377133453416, -23.017824585 ] } },
{ "type": "Feature", "properties": { "id_municipio": 3526506, "nome_municipio": "Lavínia" }, "geometry": { "type": "Point", "coordinates": [ -51.002975543472445, -21.146509603 ] } },
{ "type": "Feature", "properties": { "id_municipio": 3526605, "nome_municipio": "Lavrinhas" }, "geometry": { "type": "Point", "coordinates": [ -44.886947102856041, -22.522046354 ] } },
{ "type": "Feature", "properties": { "id_municipio": 3526704, "nome_municipio": "Leme" }, "geometry": { "type": "Point", "coordinates": [ -47.326386430035257, -22.175764562000012 ] } },
{ "type": "Feature", "properties": { "id_municipio": 3526803, "nome_municipio": "Lençóis Paulista" }, "geometry": { "type": "Point", "coordinates": [ -48.809466212986138, -22.66761806400001 ] } },
{ "type": "Feature", "properties": { "id_municipio": 3526902, "nome_municipio": "Limeira" }, "geometry": { "type": "Point", "coordinates": [ -47.365081685514546, -22.591523936999977 ] } },
{ "type": "Feature", "properties": { "id_municipio": 3527009, "nome_municipio": "Lindóia" }, "geometry": { "type": "Point", "coordinates": [ -46.650643414012464, -22.51306738 ] } },
{ "type": "Feature", "properties": { "id_municipio": 3527108, "nome_municipio": "Lins" }, "geometry": { "type": "Point", "coordinates": [ -49.673608861307315, -21.646873772000021 ] } },
{ "type": "Feature", "properties": { "id_municipio": 3527207, "nome_municipio": "Lorena" }, "geometry": { "type": "Point", "coordinates": [ -45.071131520212049, -22.776721008500004 ] } },
{ "type": "Feature", "properties": { "id_municipio": 3527256, "nome_municipio": "Lourdes" }, "geometry": { "type": "Point", "coordinates": [ -50.228838622448606, -20.948010811499984 ] } },
{ "type": "Feature", "properties": { "id_municipio": 3527306, "nome_municipio": "Louveira" }, "geometry": { "type": "Point", "coordinates": [ -46.930688338618438, -23.083010626 ] } },
{ "type": "Feature", "properties": { "id_municipio": 3527405, "nome_municipio": "Lucélia" }, "geometry": { "type": "Point", "coordinates": [ -50.969841013840387, -21.63364761 ] } },
{ "type": "Feature", "properties": { "id_municipio": 3527504, "nome_municipio": "Lucianópolis" }, "geometry": { "type": "Point", "coordinates": [ -49.559543308511181, -22.479563393500001 ] } },
{ "type": "Feature", "properties": { "id_municipio": 3527603, "nome_municipio": "Luís Antônio" }, "geometry": { "type": "Point", "coordinates": [ -47.781617958330486, -21.546946266 ] } },
{ "type": "Feature", "properties": { "id_municipio": 3527702, "nome_municipio": "Luiziânia" }, "geometry": { "type": "Point", "coordinates": [ -50.349622816183896, -21.673475274 ] } },
{ "type": "Feature", "properties": { "id_municipio": 3527801, "nome_municipio": "Lupércio" }, "geometry": { "type": "Point", "coordinates": [ -49.827672453674801, -22.438883198000013 ] } },
{ "type": "Feature", "properties": { "id_municipio": 3527900, "nome_municipio": "Lutécia" }, "geometry": { "type": "Point", "coordinates": [ -50.391406476638807, -22.321946838499997 ] } },
{ "type": "Feature", "properties": { "id_municipio": 3528007, "nome_municipio": "Macatuba" }, "geometry": { "type": "Point", "coordinates": [ -48.706792519342216, -22.463028213499996 ] } },
{ "type": "Feature", "properties": { "id_municipio": 3528106, "nome_municipio": "Macaubal" }, "geometry": { "type": "Point", "coordinates": [ -49.968821019531191, -20.850690372499997 ] } },
{ "type": "Feature", "properties": { "id_municipio": 3528205, "nome_municipio": "Macedônia" }, "geometry": { "type": "Point", "coordinates": [ -50.174300884486712, -20.095682438000011 ] } },
{ "type": "Feature", "properties": { "id_municipio": 3528304, "nome_municipio": "Magda" }, "geometry": { "type": "Point", "coordinates": [ -50.230595544661483, -20.609134314500011 ] } },
{ "type": "Feature", "properties": { "id_municipio": 3528403, "nome_municipio": "Mairinque" }, "geometry": { "type": "Point", "coordinates": [ -47.198358385003303, -23.518525586500004 ] } },
{ "type": "Feature", "properties": { "id_municipio": 3528502, "nome_municipio": "Mairiporã" }, "geometry": { "type": "Point", "coordinates": [ -46.545573081871325, -23.328493574999982 ] } },
{ "type": "Feature", "properties": { "id_municipio": 3528601, "nome_municipio": "Manduri" }, "geometry": { "type": "Point", "coordinates": [ -49.305994811425045, -23.048365825499985 ] } },
{ "type": "Feature", "properties": { "id_municipio": 3528700, "nome_municipio": "Marabá Paulista" }, "geometry": { "type": "Point", "coordinates": [ -52.042774531209233, -22.11958999 ] } },
{ "type": "Feature", "properties": { "id_municipio": 3528809, "nome_municipio": "Maracaí" }, "geometry": { "type": "Point", "coordinates": [ -50.701453430317514, -22.657592414 ] } },
{ "type": "Feature", "properties": { "id_municipio": 3528858, "nome_municipio": "Marapoama" }, "geometry": { "type": "Point", "coordinates": [ -49.123807729454143, -21.254001101999989 ] } },
{ "type": "Feature", "properties": { "id_municipio": 3528908, "nome_municipio": "Mariápolis" }, "geometry": { "type": "Point", "coordinates": [ -51.176141580897564, -21.778291188999987 ] } },
{ "type": "Feature", "properties": { "id_municipio": 3529005, "nome_municipio": "Marília" }, "geometry": { "type": "Point", "coordinates": [ -49.962584932911724, -22.187134039500023 ] } },
{ "type": "Feature", "properties": { "id_municipio": 3529104, "nome_municipio": "Marinópolis" }, "geometry": { "type": "Point", "coordinates": [ -50.828870575499266, -20.48018393800001 ] } },
{ "type": "Feature", "properties": { "id_municipio": 3529203, "nome_municipio": "Martinópolis" }, "geometry": { "type": "Point", "coordinates": [ -51.129195825623349, -22.200313685 ] } },
{ "type": "Feature", "properties": { "id_municipio": 3529302, "nome_municipio": "Matão" }, "geometry": { "type": "Point", "coordinates": [ -48.429573377343935, -21.607926939 ] } },
{ "type": "Feature", "properties": { "id_municipio": 3529401, "nome_municipio": "Mauá" }, "geometry": { "type": "Point", "coordinates": [ -46.440069394198893, -23.665743824499998 ] } },
{ "type": "Feature", "properties": { "id_municipio": 3529500, "nome_municipio": "Mendonça" }, "geometry": { "type": "Point", "coordinates": [ -49.556701170101213, -21.202437416500004 ] } },
{ "type": "Feature", "properties": { "id_municipio": 3529609, "nome_municipio": "Meridiano" }, "geometry": { "type": "Point", "coordinates": [ -50.190260655958213, -20.403408071 ] } },
{ "type": "Feature", "properties": { "id_municipio": 3529658, "nome_municipio": "Mesópolis" }, "geometry": { "type": "Point", "coordinates": [ -50.61435843963514, -19.956084339499995 ] } },
{ "type": "Feature", "properties": { "id_municipio": 3529708, "nome_municipio": "Miguelópolis" }, "geometry": { "type": "Point", "coordinates": [ -48.112944426827653, -20.189940967000013 ] } },
{ "type": "Feature", "properties": { "id_municipio": 3529807, "nome_municipio": "Mineiros do Tietê" }, "geometry": { "type": "Point", "coordinates": [ -48.440008701288463, -22.465232421499991 ] } },
{ "type": "Feature", "properties": { "id_municipio": 3529906, "nome_municipio": "Miracatu" }, "geometry": { "type": "Point", "coordinates": [ -47.421113058057131, -24.193514745499982 ] } },
{ "type": "Feature", "properties": { "id_municipio": 3530003, "nome_municipio": "Mira Estrela" }, "geometry": { "type": "Point", "coordinates": [ -50.119144785416495, -19.961186087999977 ] } },
{ "type": "Feature", "properties": { "id_municipio": 3530102, "nome_municipio": "Mirandópolis" }, "geometry": { "type": "Point", "coordinates": [ -51.12394983347037, -21.086808009500004 ] } },
{ "type": "Feature", "properties": { "id_municipio": 3530201, "nome_municipio": "Mirante do Paranapanema" }, "geometry": { "type": "Point", "coordinates": [ -52.029491628840134, -22.345329613 ] } },
{ "type": "Feature", "properties": { "id_municipio": 3530300, "nome_municipio": "Mirassol" }, "geometry": { "type": "Point", "coordinates": [ -49.505430931364955, -20.828716292 ] } },
{ "type": "Feature", "properties": { "id_municipio": 3530409, "nome_municipio": "Mirassolândia" }, "geometry": { "type": "Point", "coordinates": [ -49.481479518154806, -20.595329009500006 ] } },
{ "type": "Feature", "properties": { "id_municipio": 3530508, "nome_municipio": "Mococa" }, "geometry": { "type": "Point", "coordinates": [ -47.02801669698917, -21.448777892500004 ] } },
{ "type": "Feature", "properties": { "id_municipio": 3530607, "nome_municipio": "Mogi das Cruzes" }, "geometry": { "type": "Point", "coordinates": [ -46.19132762744335, -23.556093261499996 ] } },
{ "type": "Feature", "properties": { "id_municipio": 3530706, "nome_municipio": "Mogi Guaçu" }, "geometry": { "type": "Point", "coordinates": [ -47.099514078213247, -22.233878796499994 ] } },
{ "type": "Feature", "properties": { "id_municipio": 3530805, "nome_municipio": "Mogi Mirim" }, "geometry": { "type": "Point", "coordinates": [ -46.991838535796539, -22.437580667500015 ] } },
{ "type": "Feature", "properties": { "id_municipio": 3530904, "nome_municipio": "Mombuca" }, "geometry": { "type": "Point", "coordinates": [ -47.605390505743706, -22.942646956 ] } },
{ "type": "Feature", "properties": { "id_municipio": 3531001, "nome_municipio": "Monções" }, "geometry": { "type": "Point", "coordinates": [ -50.088102657119656, -20.875096614 ] } },
{ "type": "Feature", "properties": { "id_municipio": 3531100, "nome_municipio": "Mongaguá" }, "geometry": { "type": "Point", "coordinates": [ -46.674432843741563, -24.069195281500015 ] } },
{ "type": "Feature", "properties": { "id_municipio": 3531209, "nome_municipio": "Monte Alegre do Sul" }, "geometry": { "type": "Point", "coordinates": [ -46.666685872469657, -22.706762248 ] } },
{ "type": "Feature", "properties": { "id_municipio": 3531308, "nome_municipio": "Monte Alto" }, "geometry": { "type": "Point", "coordinates": [ -48.532474035879844, -21.257689733 ] } },
{ "type": "Feature", "properties": { "id_municipio": 3531407, "nome_municipio": "Monte Aprazível" }, "geometry": { "type": "Point", "coordinates": [ -49.690869885059769, -20.726652790499998 ] } },
{ "type": "Feature", "properties": { "id_municipio": 3531506, "nome_municipio": "Monte Azul Paulista" }, "geometry": { "type": "Point", "coordinates": [ -48.678316295957423, -20.911427414499997 ] } },
{ "type": "Feature", "properties": { "id_municipio": 3531605, "nome_municipio": "Monte Castelo" }, "geometry": { "type": "Point", "coordinates": [ -51.561778116676763, -21.241936280499999 ] } },
{ "type": "Feature", "properties": { "id_municipio": 3531704, "nome_municipio": "Monteiro Lobato" }, "geometry": { "type": "Point", "coordinates": [ -45.793137402133283, -22.937380262 ] } },
{ "type": "Feature", "properties": { "id_municipio": 3531803, "nome_municipio": "Monte Mor" }, "geometry": { "type": "Point", "coordinates": [ -47.307928710967218, -22.952974329500023 ] } },
{ "type": "Feature", "properties": { "id_municipio": 3531902, "nome_municipio": "Morro Agudo" }, "geometry": { "type": "Point", "coordinates": [ -48.156694330182461, -20.690029498499996 ] } },
{ "type": "Feature", "properties": { "id_municipio": 3532009, "nome_municipio": "Morungaba" }, "geometry": { "type": "Point", "coordinates": [ -46.767029594354099, -22.887314409999988 ] } },
{ "type": "Feature", "properties": { "id_municipio": 3532058, "nome_municipio": "Motuca" }, "geometry": { "type": "Point", "coordinates": [ -48.175416976976308, -21.51938365800001 ] } },
{ "type": "Feature", "properties": { "id_municipio": 3532108, "nome_municipio": "Murutinga do Sul" }, "geometry": { "type": "Point", "coordinates": [ -51.298894824172507, -20.99668525300001 ] } },
{ "type": "Feature", "properties": { "id_municipio": 3532157, "nome_municipio": "Nantes" }, "geometry": { "type": "Point", "coordinates": [ -51.208963968485165, -22.600596459 ] } },
{ "type": "Feature", "properties": { "id_municipio": 3532207, "nome_municipio": "Narandiba" }, "geometry": { "type": "Point", "coordinates": [ -51.5001663180702, -22.524456379000014 ] } },
{ "type": "Feature", "properties": { "id_municipio": 3532306, "nome_municipio": "Natividade da Serra" }, "geometry": { "type": "Point", "coordinates": [ -45.369825239604722, -23.426953154000017 ] } },
{ "type": "Feature", "properties": { "id_municipio": 3532405, "nome_municipio": "Nazaré Paulista" }, "geometry": { "type": "Point", "coordinates": [ -46.37741231141473, -23.205111899499997 ] } },
{ "type": "Feature", "properties": { "id_municipio": 3532504, "nome_municipio": "Neves Paulista" }, "geometry": { "type": "Point", "coordinates": [ -49.656538386485551, -20.87593677800001 ] } },
{ "type": "Feature", "properties": { "id_municipio": 3532603, "nome_municipio": "Nhandeara" }, "geometry": { "type": "Point", "coordinates": [ -50.028318444132907, -20.67233219 ] } },
{ "type": "Feature", "properties": { "id_municipio": 3532702, "nome_municipio": "Nipoã" }, "geometry": { "type": "Point", "coordinates": [ -49.774713503191151, -20.89195091900001 ] } },
{ "type": "Feature", "properties": { "id_municipio": 3532801, "nome_municipio": "Nova Aliança" }, "geometry": { "type": "Point", "coordinates": [ -49.513997150936035, -21.052071327499988 ] } },
{ "type": "Feature", "properties": { "id_municipio": 3532827, "nome_municipio": "Nova Campina" }, "geometry": { "type": "Point", "coordinates": [ -49.008266713180149, -24.20368309349999 ] } },
{ "type": "Feature", "properties": { "id_municipio": 3532843, "nome_municipio": "Nova Canaã Paulista" }, "geometry": { "type": "Point", "coordinates": [ -50.919828531001691, -20.368271102000023 ] } },
{ "type": "Feature", "properties": { "id_municipio": 3532868, "nome_municipio": "Nova Castilho" }, "geometry": { "type": "Point", "coordinates": [ -50.3503673848614, -20.782140489 ] } },
{ "type": "Feature", "properties": { "id_municipio": 3532900, "nome_municipio": "Nova Europa" }, "geometry": { "type": "Point", "coordinates": [ -48.555877801313784, -21.778019341499999 ] } },
{ "type": "Feature", "properties": { "id_municipio": 3533007, "nome_municipio": "Nova Granada" }, "geometry": { "type": "Point", "coordinates": [ -49.32104076702332, -20.454268064500013 ] } },
{ "type": "Feature", "properties": { "id_municipio": 3533106, "nome_municipio": "Nova Guataporanga" }, "geometry": { "type": "Point", "coordinates": [ -51.64840814687706, -21.320411590999981 ] } },
{ "type": "Feature", "properties": { "id_municipio": 3533205, "nome_municipio": "Nova Independência" }, "geometry": { "type": "Point", "coordinates": [ -51.519752806413251, -21.140666348 ] } },
{ "type": "Feature", "properties": { "id_municipio": 3533254, "nome_municipio": "Novais" }, "geometry": { "type": "Point", "coordinates": [ -48.907262594210394, -20.986121378500002 ] } },
{ "type": "Feature", "properties": { "id_municipio": 3533304, "nome_municipio": "Nova Luzitânia" }, "geometry": { "type": "Point", "coordinates": [ -50.239133903779226, -20.870094606 ] } },
{ "type": "Feature", "properties": { "id_municipio": 3533403, "nome_municipio": "Nova Odessa" }, "geometry": { "type": "Point", "coordinates": [ -47.278625334064849, -22.781084872 ] } },
{ "type": "Feature", "properties": { "id_municipio": 3533502, "nome_municipio": "Novo Horizonte" }, "geometry": { "type": "Point", "coordinates": [ -49.30120552101711, -21.478754159499999 ] } },
{ "type": "Feature", "properties": { "id_municipio": 3533601, "nome_municipio": "Nuporanga" }, "geometry": { "type": "Point", "coordinates": [ -47.714339073893058, -20.701415146000016 ] } },
{ "type": "Feature", "properties": { "id_municipio": 3533700, "nome_municipio": "Ocauçu" }, "geometry": { "type": "Point", "coordinates": [ -49.937860757758045, -22.433717776 ] } },
{ "type": "Feature", "properties": { "id_municipio": 3533809, "nome_municipio": "Óleo" }, "geometry": { "type": "Point", "coordinates": [ -49.389506097498902, -22.969696084999981 ] } },
{ "type": "Feature", "properties": { "id_municipio": 3533908, "nome_municipio": "Olímpia" }, "geometry": { "type": "Point", "coordinates": [ -48.958256373265158, -20.706829935500025 ] } },
{ "type": "Feature", "properties": { "id_municipio": 3534005, "nome_municipio": "Onda Verde" }, "geometry": { "type": "Point", "coordinates": [ -49.250266699445675, -20.610136177499982 ] } },
{ "type": "Feature", "properties": { "id_municipio": 3534104, "nome_municipio": "Oriente" }, "geometry": { "type": "Point", "coordinates": [ -50.09023785545557, -22.143457005000016 ] } },
{ "type": "Feature", "properties": { "id_municipio": 3534203, "nome_municipio": "Orindiúva" }, "geometry": { "type": "Point", "coordinates": [ -49.365310780848347, -20.214416046 ] } },
{ "type": "Feature", "properties": { "id_municipio": 3534302, "nome_municipio": "Orlândia" }, "geometry": { "type": "Point", "coordinates": [ -47.896379918822447, -20.700094304 ] } },
{ "type": "Feature", "properties": { "id_municipio": 3534401, "nome_municipio": "Osasco" }, "geometry": { "type": "Point", "coordinates": [ -46.788804662433435, -23.533286854499977 ] } },
{ "type": "Feature", "properties": { "id_municipio": 3534500, "nome_municipio": "Oscar Bressane" }, "geometry": { "type": "Point", "coordinates": [ -50.252040732969839, -22.294292421499989 ] } },
{ "type": "Feature", "properties": { "id_municipio": 3534609, "nome_municipio": "Osvaldo Cruz" }, "geometry": { "type": "Point", "coordinates": [ -50.884358888696923, -21.705633924500006 ] } },
{ "type": "Feature", "properties": { "id_municipio": 3534708, "nome_municipio": "Ourinhos" }, "geometry": { "type": "Point", "coordinates": [ -49.85840486388927, -22.95617731050001 ] } },
{ "type": "Feature", "properties": { "id_municipio": 3534757, "nome_municipio": "Ouroeste" }, "geometry": { "type": "Point", "coordinates": [ -50.400592220160085, -19.922808630999981 ] } },
{ "type": "Feature", "properties": { "id_municipio": 3534807, "nome_municipio": "Ouro Verde" }, "geometry": { "type": "Point", "coordinates": [ -51.718772984384856, -21.496448772 ] } },
{ "type": "Feature", "properties": { "id_municipio": 3534906, "nome_municipio": "Pacaembu" }, "geometry": { "type": "Point", "coordinates": [ -51.275610542008963, -21.497273691499998 ] } },
{ "type": "Feature", "properties": { "id_municipio": 3535002, "nome_municipio": "Palestina" }, "geometry": { "type": "Point", "coordinates": [ -49.475444737718377, -20.337470026 ] } },
{ "type": "Feature", "properties": { "id_municipio": 3535101, "nome_municipio": "Palmares Paulista" }, "geometry": { "type": "Point", "coordinates": [ -48.830614852575309, -21.098686730499992 ] } },
{ "type": "Feature", "properties": { "id_municipio": 3535200, "nome_municipio": "Palmeira d`Oeste" }, "geometry": { "type": "Point", "coordinates": [ -50.735721290888037, -20.43862777450002 ] } },
{ "type": "Feature", "properties": { "id_municipio": 3535309, "nome_municipio": "Palmital" }, "geometry": { "type": "Point", "coordinates": [ -50.220979319990064, -22.820369207999988 ] } },
{ "type": "Feature", "properties": { "id_municipio": 3535408, "nome_municipio": "Panorama" }, "geometry": { "type": "Point", "coordinates": [ -51.845636723453474, -21.460158274500003 ] } },
{ "type": "Feature", "properties": { "id_municipio": 3535507, "nome_municipio": "Paraguaçu Paulista" }, "geometry": { "type": "Point", "coordinates": [ -50.645222598936144, -22.46381202249998 ] } },
{ "type": "Feature", "properties": { "id_municipio": 3535606, "nome_municipio": "Paraibuna" }, "geometry": { "type": "Point", "coordinates": [ -45.652464886315045, -23.472045509999987 ] } },
{ "type": "Feature", "properties": { "id_municipio": 3535705, "nome_municipio": "Paraíso" }, "geometry": { "type": "Point", "coordinates": [ -48.764824655141943, -21.016130014999987 ] } },
{ "type": "Feature", "properties": { "id_municipio": 3535804, "nome_municipio": "Paranapanema" }, "geometry": { "type": "Point", "coordinates": [ -48.790816364711269, -23.453940932499989 ] } },
{ "type": "Feature", "properties": { "id_municipio": 3535903, "nome_municipio": "Paranapuã" }, "geometry": { "type": "Point", "coordinates": [ -50.603683690733043, -20.063813510499983 ] } },
{ "type": "Feature", "properties": { "id_municipio": 3536000, "nome_municipio": "Parapuã" }, "geometry": { "type": "Point", "coordinates": [ -50.775279049224764, -21.828709651999986 ] } },
{ "type": "Feature", "properties": { "id_municipio": 3536109, "nome_municipio": "Pardinho" }, "geometry": { "type": "Point", "coordinates": [ -48.411884450869906, -23.099085156499996 ] } },
{ "type": "Feature", "properties": { "id_municipio": 3536208, "nome_municipio": "Pariquera-Açu" }, "geometry": { "type": "Point", "coordinates": [ -47.853090874516802, -24.682330317499975 ] } },
{ "type": "Feature", "properties": { "id_municipio": 3536257, "nome_municipio": "Parisi" }, "geometry": { "type": "Point", "coordinates": [ -50.041318531891143, -20.258386603499986 ] } },
{ "type": "Feature", "properties": { "id_municipio": 3536307, "nome_municipio": "Patrocínio Paulista" }, "geometry": { "type": "Point", "coordinates": [ -47.294788196804106, -20.693122750000015 ] } },
{ "type": "Feature", "properties": { "id_municipio": 3536406, "nome_municipio": "Paulicéia" }, "geometry": { "type": "Point", "coordinates": [ -51.798694895822109, -21.211684644 ] } },
{ "type": "Feature", "properties": { "id_municipio": 3536505, "nome_municipio": "Paulínia" }, "geometry": { "type": "Point", "coordinates": [ -47.155969471872233, -22.747538405 ] } },
{ "type": "Feature", "properties": { "id_municipio": 3536570, "nome_municipio": "Paulistânia" }, "geometry": { "type": "Point", "coordinates": [ -49.310457594862022, -22.567653737499995 ] } },
{ "type": "Feature", "properties": { "id_municipio": 3536604, "nome_municipio": "Paulo de Faria" }, "geometry": { "type": "Point", "coordinates": [ -49.43307354725485, -20.074832931 ] } },
{ "type": "Feature", "properties": { "id_municipio": 3536703, "nome_municipio": "Pederneiras" }, "geometry": { "type": "Point", "coordinates": [ -48.87706548306285, -22.289530043000013 ] } },
{ "type": "Feature", "properties": { "id_municipio": 3536802, "nome_municipio": "Pedra Bela" }, "geometry": { "type": "Point", "coordinates": [ -46.410258351740154, -22.76474426850001 ] } },
{ "type": "Feature", "properties": { "id_municipio": 3536901, "nome_municipio": "Pedranópolis" }, "geometry": { "type": "Point", "coordinates": [ -50.128028036903885, -20.20318766699998 ] } },
{ "type": "Feature", "properties": { "id_municipio": 3537008, "nome_municipio": "Pedregulho" }, "geometry": { "type": "Point", "coordinates": [ -47.495818920096028, -20.159892004500023 ] } },
{ "type": "Feature", "properties": { "id_municipio": 3537107, "nome_municipio": "Pedreira" }, "geometry": { "type": "Point", "coordinates": [ -46.877171111522138, -22.76218579250002 ] } },
{ "type": "Feature", "properties": { "id_municipio": 3537156, "nome_municipio": "Pedrinhas Paulista" }, "geometry": { "type": "Point", "coordinates": [ -50.789283800315076, -22.813596498500004 ] } },
{ "type": "Feature", "properties": { "id_municipio": 3537206, "nome_municipio": "Pedro de Toledo" }, "geometry": { "type": "Point", "coordinates": [ -47.162808186724611, -24.177597257499997 ] } },
{ "type": "Feature", "properties": { "id_municipio": 3537305, "nome_municipio": "Penápolis" }, "geometry": { "type": "Point", "coordinates": [ -50.0719049362256, -21.39226708450002 ] } },
{ "type": "Feature", "properties": { "id_municipio": 3537404, "nome_municipio": "Pereira Barreto" }, "geometry": { "type": "Point", "coordinates": [ -51.106670299772233, -20.682128883499985 ] } },
{ "type": "Feature", "properties": { "id_municipio": 3537503, "nome_municipio": "Pereiras" }, "geometry": { "type": "Point", "coordinates": [ -47.978818315525174, -23.122634158499977 ] } },
{ "type": "Feature", "properties": { "id_municipio": 3537602, "nome_municipio": "Peruíbe" }, "geometry": { "type": "Point", "coordinates": [ -46.983334079581695, -24.283331874999988 ] } },
{ "type": "Feature", "properties": { "id_municipio": 3537701, "nome_municipio": "Piacatu" }, "geometry": { "type": "Point", "coordinates": [ -50.62584036430745, -21.576446674499977 ] } },
{ "type": "Feature", "properties": { "id_municipio": 3537800, "nome_municipio": "Piedade" }, "geometry": { "type": "Point", "coordinates": [ -47.446440989714972, -23.800874965 ] } },
{ "type": "Feature", "properties": { "id_municipio": 3537909, "nome_municipio": "Pilar do Sul" }, "geometry": { "type": "Point", "coordinates": [ -47.705337755913945, -23.857074604000019 ] } },
{ "type": "Feature", "properties": { "id_municipio": 3538006, "nome_municipio": "Pindamonhangaba" }, "geometry": { "type": "Point", "coordinates": [ -45.458831865772339, -22.887398621499983 ] } },
{ "type": "Feature", "properties": { "id_municipio": 3538105, "nome_municipio": "Pindorama" }, "geometry": { "type": "Point", "coordinates": [ -48.912450699303236, -21.202641484499992 ] } },
{ "type": "Feature", "properties": { "id_municipio": 3538204, "nome_municipio": "Pinhalzinho" }, "geometry": { "type": "Point", "coordinates": [ -46.580756690002055, -22.785586425 ] } },
{ "type": "Feature", "properties": { "id_municipio": 3538303, "nome_municipio": "Piquerobi" }, "geometry": { "type": "Point", "coordinates": [ -51.719125746873601, -21.844479533499992 ] } },
{ "type": "Feature", "properties": { "id_municipio": 3538501, "nome_municipio": "Piquete" }, "geometry": { "type": "Point", "coordinates": [ -45.182986354955162, -22.577891588499995 ] } },
{ "type": "Feature", "properties": { "id_municipio": 3538600, "nome_municipio": "Piracaia" }, "geometry": { "type": "Point", "coordinates": [ -46.288148441574272, -23.043301904499998 ] } },
{ "type": "Feature", "properties": { "id_municipio": 3538709, "nome_municipio": "Piracicaba" }, "geometry": { "type": "Point", "coordinates": [ -47.813732379157358, -22.711311274499991 ] } },
{ "type": "Feature", "properties": { "id_municipio": 3538808, "nome_municipio": "Piraju" }, "geometry": { "type": "Point", "coordinates": [ -49.35063780322033, -23.19378425 ] } },
{ "type": "Feature", "properties": { "id_municipio": 3538907, "nome_municipio": "Pirajuí" }, "geometry": { "type": "Point", "coordinates": [ -49.433293849679487, -21.904416231 ] } },
{ "type": "Feature", "properties": { "id_municipio": 3539004, "nome_municipio": "Pirangi" }, "geometry": { "type": "Point", "coordinates": [ -48.656619507488536, -21.083928038500005 ] } },
{ "type": "Feature", "properties": { "id_municipio": 3539103, "nome_municipio": "Pirapora do Bom Jesus" }, "geometry": { "type": "Point", "coordinates": [ -46.97773705676218, -23.377644493499986 ] } },
{ "type": "Feature", "properties": { "id_municipio": 3539202, "nome_municipio": "Pirapozinho" }, "geometry": { "type": "Point", "coordinates": [ -51.566144192462374, -22.433665179499997 ] } },
{ "type": "Feature", "properties": { "id_municipio": 3539301, "nome_municipio": "Pirassununga" }, "geometry": { "type": "Point", "coordinates": [ -47.418810339404487, -21.971654457 ] } },
{ "type": "Feature", "properties": { "id_municipio": 3539400, "nome_municipio": "Piratininga" }, "geometry": { "type": "Point", "coordinates": [ -49.186993892595495, -22.416581678 ] } },
{ "type": "Feature", "properties": { "id_municipio": 3539509, "nome_municipio": "Pitangueiras" }, "geometry": { "type": "Point", "coordinates": [ -48.259900091604166, -21.00258763 ] } },
{ "type": "Feature", "properties": { "id_municipio": 3539608, "nome_municipio": "Planalto" }, "geometry": { "type": "Point", "coordinates": [ -49.938396118569813, -21.019512448499995 ] } },
{ "type": "Feature", "properties": { "id_municipio": 3539707, "nome_municipio": "Platina" }, "geometry": { "type": "Point", "coordinates": [ -50.208722535251908, -22.619593575500005 ] } },
{ "type": "Feature", "properties": { "id_municipio": 3539806, "nome_municipio": "Poá" }, "geometry": { "type": "Point", "coordinates": [ -46.343432948954153, -23.539108207 ] } },
{ "type": "Feature", "properties": { "id_municipio": 3539905, "nome_municipio": "Poloni" }, "geometry": { "type": "Point", "coordinates": [ -49.833513423365915, -20.742229837499991 ] } },
{ "type": "Feature", "properties": { "id_municipio": 3540002, "nome_municipio": "Pompéia" }, "geometry": { "type": "Point", "coordinates": [ -50.195654129136322, -22.03423071 ] } },
{ "type": "Feature", "properties": { "id_municipio": 3540101, "nome_municipio": "Pongaí" }, "geometry": { "type": "Point", "coordinates": [ -49.362177359596046, -21.72371745800001 ] } },
{ "type": "Feature", "properties": { "id_municipio": 3540200, "nome_municipio": "Pontal" }, "geometry": { "type": "Point", "coordinates": [ -48.067787302019212, -20.990092068000024 ] } },
{ "type": "Feature", "properties": { "id_municipio": 3540259, "nome_municipio": "Pontalinda" }, "geometry": { "type": "Point", "coordinates": [ -50.514241415211956, -20.452737511500004 ] } },
{ "type": "Feature", "properties": { "id_municipio": 3540309, "nome_municipio": "Pontes Gestal" }, "geometry": { "type": "Point", "coordinates": [ -49.741825622437958, -20.178041083000011 ] } },
{ "type": "Feature", "properties": { "id_municipio": 3540408, "nome_municipio": "Populina" }, "geometry": { "type": "Point", "coordinates": [ -50.523102509485369, -19.908751188499991 ] } },
{ "type": "Feature", "properties": { "id_municipio": 3540507, "nome_municipio": "Porangaba" }, "geometry": { "type": "Point", "coordinates": [ -48.102529939074181, -23.175435661500018 ] } },
{ "type": "Feature", "properties": { "id_municipio": 3540606, "nome_municipio": "Porto Feliz" }, "geometry": { "type": "Point", "coordinates": [ -47.523176162827681, -23.237758868499981 ] } },
{ "type": "Feature", "properties": { "id_municipio": 3540705, "nome_municipio": "Porto Ferreira" }, "geometry": { "type": "Point", "coordinates": [ -47.456983435882265, -21.845518509499982 ] } },
{ "type": "Feature", "properties": { "id_municipio": 3540754, "nome_municipio": "Potim" }, "geometry": { "type": "Point", "coordinates": [ -45.320913329061348, -22.822379035000012 ] } },
{ "type": "Feature", "properties": { "id_municipio": 3540804, "nome_municipio": "Potirendaba" }, "geometry": { "type": "Point", "coordinates": [ -49.376715534564397, -21.075984057 ] } },
{ "type": "Feature", "properties": { "id_municipio": 3540853, "nome_municipio": "Pracinha" }, "geometry": { "type": "Point", "coordinates": [ -51.06534354499172, -21.838144733500002 ] } },
{ "type": "Feature", "properties": { "id_municipio": 3540903, "nome_municipio": "Pradópolis" }, "geometry": { "type": "Point", "coordinates": [ -48.085576109205284, -21.345806595 ] } },
{ "type": "Feature", "properties": { "id_municipio": 3541000, "nome_municipio": "Praia Grande" }, "geometry": { "type": "Point", "coordinates": [ -46.517870366753236, -24.018213239 ] } },
{ "type": "Feature", "properties": { "id_municipio": 3541059, "nome_municipio": "Pratânia" }, "geometry": { "type": "Point", "coordinates": [ -48.683371274587287, -22.815457551500003 ] } },
{ "type": "Feature", "properties": { "id_municipio": 3541109, "nome_municipio": "Presidente Alves" }, "geometry": { "type": "Point", "coordinates": [ -49.470343004181728, -22.12315498000001 ] } },
{ "type": "Feature", "properties": { "id_municipio": 3541208, "nome_municipio": "Presidente Bernardes" }, "geometry": { "type": "Point", "coordinates": [ -51.639617229417695, -22.106013138500003 ] } },
{ "type": "Feature", "properties": { "id_municipio": 3541307, "nome_municipio": "Presidente Epitácio" }, "geometry": { "type": "Point", "coordinates": [ -52.180922002955242, -21.887180291000021 ] } },
{ "type": "Feature", "properties": { "id_municipio": 3541406, "nome_municipio": "Presidente Prudente" }, "geometry": { "type": "Point", "coordinates": [ -51.321712295673038, -21.963364036 ] } },
{ "type": "Feature", "properties": { "id_municipio": 3541505, "nome_municipio": "Presidente Venceslau" }, "geometry": { "type": "Point", "coordinates": [ -51.824991317616949, -21.791376724500026 ] } },
{ "type": "Feature", "properties": { "id_municipio": 3541604, "nome_municipio": "Promissão" }, "geometry": { "type": "Point", "coordinates": [ -49.813429890796897, -21.491371583499983 ] } },
{ "type": "Feature", "properties": { "id_municipio": 3541653, "nome_municipio": "Quadra" }, "geometry": { "type": "Point", "coordinates": [ -48.032024443323301, -23.302928528999985 ] } },
{ "type": "Feature", "properties": { "id_municipio": 3541703, "nome_municipio": "Quatá" }, "geometry": { "type": "Point", "coordinates": [ -50.635702448163627, -22.22855006650002 ] } },
{ "type": "Feature", "properties": { "id_municipio": 3541802, "nome_municipio": "Queiroz" }, "geometry": { "type": "Point", "coordinates": [ -50.241626042920778, -21.798622796000018 ] } },
{ "type": "Feature", "properties": { "id_municipio": 3541901, "nome_municipio": "Queluz" }, "geometry": { "type": "Point", "coordinates": [ -44.776449428958315, -22.508554010500006 ] } },
{ "type": "Feature", "properties": { "id_municipio": 3542008, "nome_municipio": "Quintana" }, "geometry": { "type": "Point", "coordinates": [ -50.341193936218119, -22.076654401000013 ] } },
{ "type": "Feature", "properties": { "id_municipio": 3542107, "nome_municipio": "Rafard" }, "geometry": { "type": "Point", "coordinates": [ -47.581812371279675, -23.043600303 ] } },
{ "type": "Feature", "properties": { "id_municipio": 3542206, "nome_municipio": "Rancharia" }, "geometry": { "type": "Point", "coordinates": [ -50.963279377347661, -22.312858381500007 ] } },
{ "type": "Feature", "properties": { "id_municipio": 3542305, "nome_municipio": "Redenção da Serra" }, "geometry": { "type": "Point", "coordinates": [ -45.514685288568472, -23.248838106000022 ] } },
{ "type": "Feature", "properties": { "id_municipio": 3542404, "nome_municipio": "Regente Feijó" }, "geometry": { "type": "Point", "coordinates": [ -51.324125918345302, -22.199561196 ] } },
{ "type": "Feature", "properties": { "id_municipio": 3542503, "nome_municipio": "Reginópolis" }, "geometry": { "type": "Point", "coordinates": [ -49.188775976141244, -21.854511816500008 ] } },
{ "type": "Feature", "properties": { "id_municipio": 3542602, "nome_municipio": "Registro" }, "geometry": { "type": "Point", "coordinates": [ -47.797498943884406, -24.494720776 ] } },
{ "type": "Feature", "properties": { "id_municipio": 3542701, "nome_municipio": "Restinga" }, "geometry": { "type": "Point", "coordinates": [ -47.49478383193194, -20.64745541 ] } },
{ "type": "Feature", "properties": { "id_municipio": 3542800, "nome_municipio": "Ribeira" }, "geometry": { "type": "Point", "coordinates": [ -49.051377585253434, -24.603565804499993 ] } },
{ "type": "Feature", "properties": { "id_municipio": 3542909, "nome_municipio": "Ribeirão Bonito" }, "geometry": { "type": "Point", "coordinates": [ -48.208669992108007, -22.037957821 ] } },
{ "type": "Feature", "properties": { "id_municipio": 3543006, "nome_municipio": "Ribeirão Branco" }, "geometry": { "type": "Point", "coordinates": [ -48.790031795610119, -24.253967073499979 ] } },
{ "type": "Feature", "properties": { "id_municipio": 3543105, "nome_municipio": "Ribeirão Corrente" }, "geometry": { "type": "Point", "coordinates": [ -47.561811007406, -20.457886957499994 ] } },
{ "type": "Feature", "properties": { "id_municipio": 3543204, "nome_municipio": "Ribeirão do Sul" }, "geometry": { "type": "Point", "coordinates": [ -49.917356428929082, -22.746897652499996 ] } },
{ "type": "Feature", "properties": { "id_municipio": 3543238, "nome_municipio": "Ribeirão dos Índios" }, "geometry": { "type": "Point", "coordinates": [ -51.593469124047317, -21.807952359499978 ] } },
{ "type": "Feature", "properties": { "id_municipio": 3543253, "nome_municipio": "Ribeirão Grande" }, "geometry": { "type": "Point", "coordinates": [ -48.362272820807839, -24.182613845999981 ] } },
{ "type": "Feature", "properties": { "id_municipio": 3543303, "nome_municipio": "Ribeirão Pires" }, "geometry": { "type": "Point", "coordinates": [ -46.390361535486143, -23.694173055 ] } },
{ "type": "Feature", "properties": { "id_municipio": 3543402, "nome_municipio": "Ribeirão Preto" }, "geometry": { "type": "Point", "coordinates": [ -47.800844742994137, -21.214384162500011 ] } },
{ "type": "Feature", "properties": { "id_municipio": 3543501, "nome_municipio": "Riversul" }, "geometry": { "type": "Point", "coordinates": [ -49.454564994699439, -23.844516698 ] } },
{ "type": "Feature", "properties": { "id_municipio": 3543600, "nome_municipio": "Rifaina" }, "geometry": { "type": "Point", "coordinates": [ -47.441925847887305, -20.065762689000024 ] } },
{ "type": "Feature", "properties": { "id_municipio": 3543709, "nome_municipio": "Rincão" }, "geometry": { "type": "Point", "coordinates": [ -48.070774292850601, -21.575801728500011 ] } },
{ "type": "Feature", "properties": { "id_municipio": 3543808, "nome_municipio": "Rinópolis" }, "geometry": { "type": "Point", "coordinates": [ -50.719527873963173, -21.680485906 ] } },
{ "type": "Feature", "properties": { "id_municipio": 3543907, "nome_municipio": "Rio Claro" }, "geometry": { "type": "Point", "coordinates": [ -47.562352042469492, -22.397960590999986 ] } },
{ "type": "Feature", "properties": { "id_municipio": 3544004, "nome_municipio": "Rio das Pedras" }, "geometry": { "type": "Point", "coordinates": [ -47.600354323799138, -22.845599389 ] } },
{ "type": "Feature", "properties": { "id_municipio": 3544103, "nome_municipio": "Rio Grande da Serra" }, "geometry": { "type": "Point", "coordinates": [ -46.38527152429495, -23.738245717000012 ] } },
{ "type": "Feature", "properties": { "id_municipio": 3544202, "nome_municipio": "Riolândia" }, "geometry": { "type": "Point", "coordinates": [ -49.687083563001451, -20.050932414500011 ] } },
{ "type": "Feature", "properties": { "id_municipio": 3544251, "nome_municipio": "Rosana" }, "geometry": { "type": "Point", "coordinates": [ -52.831533879648475, -22.479270954500009 ] } },
{ "type": "Feature", "properties": { "id_municipio": 3544301, "nome_municipio": "Roseira" }, "geometry": { "type": "Point", "coordinates": [ -45.306838768963225, -22.932139901499994 ] } },
{ "type": "Feature", "properties": { "id_municipio": 3544400, "nome_municipio": "Rubiácea" }, "geometry": { "type": "Point", "coordinates": [ -50.752810674539859, -21.34474764700002 ] } },
{ "type": "Feature", "properties": { "id_municipio": 3544509, "nome_municipio": "Rubinéia" }, "geometry": { "type": "Point", "coordinates": [ -51.045687694581545, -20.26370048550001 ] } },
{ "type": "Feature", "properties": { "id_municipio": 3544608, "nome_municipio": "Sabino" }, "geometry": { "type": "Point", "coordinates": [ -49.570782460540187, -21.483119288000012 ] } },
{ "type": "Feature", "properties": { "id_municipio": 3544707, "nome_municipio": "Sagres" }, "geometry": { "type": "Point", "coordinates": [ -50.994534686638332, -21.863366751 ] } },
{ "type": "Feature", "properties": { "id_municipio": 3544806, "nome_municipio": "Sales" }, "geometry": { "type": "Point", "coordinates": [ -49.495931516223301, -21.337136188500011 ] } },
{ "type": "Feature", "properties": { "id_municipio": 3544905, "nome_municipio": "Sales Oliveira" }, "geometry": { "type": "Point", "coordinates": [ -47.845095725883752, -20.824692482500012 ] } },
{ "type": "Feature", "properties": { "id_municipio": 3545001, "nome_municipio": "Salesópolis" }, "geometry": { "type": "Point", "coordinates": [ -45.848333499840315, -23.577323405499982 ] } },
{ "type": "Feature", "properties": { "id_municipio": 3545100, "nome_municipio": "Salmourão" }, "geometry": { "type": "Point", "coordinates": [ -50.870736620261511, -21.587411535 ] } },
{ "type": "Feature", "properties": { "id_municipio": 3545159, "nome_municipio": "Saltinho" }, "geometry": { "type": "Point", "coordinates": [ -47.731774581617401, -22.865766504999982 ] } },
{ "type": "Feature", "properties": { "id_municipio": 3545209, "nome_municipio": "Salto" }, "geometry": { "type": "Point", "coordinates": [ -47.311227333164574, -23.173666971499983 ] } },
{ "type": "Feature", "properties": { "id_municipio": 3545308, "nome_municipio": "Salto de Pirapora" }, "geometry": { "type": "Point", "coordinates": [ -47.590074364814029, -23.660618131 ] } },
{ "type": "Feature", "properties": { "id_municipio": 3545407, "nome_municipio": "Salto Grande" }, "geometry": { "type": "Point", "coordinates": [ -49.958077515243346, -22.873818811500001 ] } },
{ "type": "Feature", "properties": { "id_municipio": 3545506, "nome_municipio": "Sandovalina" }, "geometry": { "type": "Point", "coordinates": [ -51.826712302659836, -22.467064949499985 ] } },
{ "type": "Feature", "properties": { "id_municipio": 3545605, "nome_municipio": "Santa Adélia" }, "geometry": { "type": "Point", "coordinates": [ -48.826371421355844, -21.320805829500017 ] } },
{ "type": "Feature", "properties": { "id_municipio": 3545704, "nome_municipio": "Santa Albertina" }, "geometry": { "type": "Point", "coordinates": [ -50.723142531259342, -20.031224852500003 ] } },
{ "type": "Feature", "properties": { "id_municipio": 3545803, "nome_municipio": "Santa Bárbara d`Oeste" }, "geometry": { "type": "Point", "coordinates": [ -47.433338018138386, -22.803446357500007 ] } },
{ "type": "Feature", "properties": { "id_municipio": 3546009, "nome_municipio": "Santa Branca" }, "geometry": { "type": "Point", "coordinates": [ -45.884499626320974, -23.41748158599998 ] } },
{ "type": "Feature", "properties": { "id_municipio": 3546108, "nome_municipio": "Santa Clara d`Oeste" }, "geometry": { "type": "Point", "coordinates": [ -50.911729806424624, -20.066593426999987 ] } },
{ "type": "Feature", "properties": { "id_municipio": 3546207, "nome_municipio": "Santa Cruz da Conceição" }, "geometry": { "type": "Point", "coordinates": [ -47.482829350654313, -22.125324978 ] } },
{ "type": "Feature", "properties": { "id_municipio": 3546256, "nome_municipio": "Santa Cruz da Esperança" }, "geometry": { "type": "Point", "coordinates": [ -47.439996366007549, -21.286244230500017 ] } },
{ "type": "Feature", "properties": { "id_municipio": 3546306, "nome_municipio": "Santa Cruz das Palmeiras" }, "geometry": { "type": "Point", "coordinates": [ -47.257693057690823, -21.861622728000015 ] } },
{ "type": "Feature", "properties": { "id_municipio": 3546405, "nome_municipio": "Santa Cruz do Rio Pardo" }, "geometry": { "type": "Point", "coordinates": [ -49.51728984868906, -22.760498 ] } },
{ "type": "Feature", "properties": { "id_municipio": 3546504, "nome_municipio": "Santa Ernestina" }, "geometry": { "type": "Point", "coordinates": [ -48.356265318106502, -21.444897823 ] } },
{ "type": "Feature", "properties": { "id_municipio": 3546603, "nome_municipio": "Santa Fé do Sul" }, "geometry": { "type": "Point", "coordinates": [ -50.97333024736551, -20.266013120999986 ] } },
{ "type": "Feature", "properties": { "id_municipio": 3546702, "nome_municipio": "Santa Gertrudes" }, "geometry": { "type": "Point", "coordinates": [ -47.531746180315899, -22.473377574500006 ] } },
{ "type": "Feature", "properties": { "id_municipio": 3546801, "nome_municipio": "Santa Isabel" }, "geometry": { "type": "Point", "coordinates": [ -46.236217978979795, -23.295526226500016 ] } },
{ "type": "Feature", "properties": { "id_municipio": 3546900, "nome_municipio": "Santa Lúcia" }, "geometry": { "type": "Point", "coordinates": [ -48.048826665587441, -21.66554062900002 ] } },